[{"uid": "68308", "name": "3S-Eisgratbahn", "lat": "47.013236", "lon": "11.162801"}, {"uid": "65380", "name": "Absam Breitweg", "lat": "47.292025", "lon": "11.504271"}, {"uid": "65379", "name": "Absam Dorf", "lat": "47.295279", "lon": "11.505455"}, {"uid": "65369", "name": "Absam Kirche", "lat": "47.295908", "lon": "11.501054"}, {"uid": "65370", "name": "Absam Stainerstra\u00dfe", "lat": "47.298237", "lon": "11.506683"}, {"uid": "65324", "name": "Abzw. Elferbahn", "lat": "47.111373", "lon": "11.30904"}, {"uid": "65405", "name": "Aldrans", "lat": "47.247821", "lon": "11.434978"}, {"uid": "64237", "name": "Aldrans Dorfplatz", "lat": "47.250977", "lon": "11.445876"}, {"uid": "64242", "name": "Aldrans Fagslung", "lat": "47.245112", "lon": "11.46201"}, {"uid": "64236", "name": "Aldrans Felseneck", "lat": "47.252", "lon": "11.4397"}, {"uid": "64238", "name": "Aldrans Freizeitzentrum", "lat": "47.243907", "lon": "11.437717"}, {"uid": "61345", "name": "Aldrans Haidegger", "lat": "47.246568", "lon": "11.439595"}, {"uid": "61512", "name": "Allerheiligen", "lat": "47.268288", "lon": "11.355613"}, {"uid": "61513", "name": "Allerheiligenh\u00f6fe", "lat": "47.269536", "lon": "11.355694"}, {"uid": "61587", "name": "Alpenzoo", "lat": "47.281865", "lon": "11.400006"}, {"uid": "61863", "name": "Ampfererstra\u00dfe Ersatzhaltestelle", "lat": "47.260831", "lon": "11.376557"}, {"uid": "61598", "name": "Amras", "lat": "47.258617", "lon": "11.42561"}, {"uid": "64208", "name": "Amras Ort", "lat": "47.258996", "lon": "11.430761"}, {"uid": "61592", "name": "Amraser Stra\u00dfe", "lat": "47.263838", "lon": "11.409009"}, {"uid": "61615", "name": "Andechsstra\u00dfe", "lat": "47.267226", "lon": "11.422696"}, {"uid": "61503", "name": "Andreas-Dipauli-Stra\u00dfe", "lat": "47.266793", "lon": "11.332434"}, {"uid": "65374", "name": "Andreas-Hofer-Kaserne", "lat": "47.303489", "lon": "11.504817"}, {"uid": "61676", "name": "Angergasse", "lat": "47.261263", "lon": "11.367806"}, {"uid": "61565", "name": "Anichstra\u00dfe/Rathausg.", "lat": "47.265115", "lon": "11.393549"}, {"uid": "65356", "name": "Anton-Rauch-Stra\u00dfe", "lat": "47.282016", "lon": "11.407248"}, {"uid": "64010", "name": "Arbeitsmarktservice Innsbruck", "lat": "47.259452", "lon": "11.393238"}, {"uid": "65361", "name": "Arzl Ost", "lat": "47.284672", "lon": "11.435936"}, {"uid": "65360", "name": "Arzl West", "lat": "47.283713", "lon": "11.432549"}, {"uid": "65418", "name": "Au\u00dferkreith", "lat": "47.209419", "lon": "11.378241"}, {"uid": "65323", "name": "Au\u00dferrain", "lat": "47.120378", "lon": "11.32117"}, {"uid": "68132", "name": "Badhaussiedlung", "lat": "47.225234", "lon": "11.429583"}, {"uid": "61623", "name": "Baggersee", "lat": "47.265541", "lon": "11.442208"}, {"uid": "61573", "name": "Basilika Wilten", "lat": "47.254916", "lon": "11.398572"}, {"uid": "61514", "name": "Berchtoldshof", "lat": "47.270147", "lon": "11.359777"}, {"uid": "61574", "name": "Bergisel", "lat": "47.252814", "lon": "11.400081"}, {"uid": "68420", "name": "Bergiselweg Innsbruck", "lat": "47.250222", "lon": "11.395508"}, {"uid": "61621", "name": "Bernhard-H\u00f6fel-Str.", "lat": "47.264572", "lon": "11.428781"}, {"uid": "68145", "name": "Bettelwurfsiedlung", "lat": "47.305797", "lon": "11.51931"}, {"uid": "65321", "name": "Bichl", "lat": "47.123451", "lon": "11.331476"}, {"uid": "65415", "name": "Birchfeld", "lat": "47.228527", "lon": "11.367744"}, {"uid": "61546", "name": "Botanikerstra\u00dfe", "lat": "47.267677", "lon": "11.380942"}, {"uid": "66425", "name": "Bozner Platz", "lat": "47.265134", "lon": "11.397512"}, {"uid": "68104", "name": "Brandeck", "lat": "47.196886", "lon": "11.382775"}, {"uid": "61553", "name": "Brandjochstra\u00dfe", "lat": "47.270051", "lon": "11.381542"}, {"uid": "65401", "name": "Bretterkeller", "lat": "47.252894", "lon": "11.404669"}, {"uid": "68493", "name": "BRG in der Au Ersatzhaltestelle", "lat": "47.26453", "lon": "11.374951"}, {"uid": "61576", "name": "Brunecker Stra\u00dfe/BFI", "lat": "47.266883", "lon": "11.401827"}, {"uid": "61580", "name": "Bundesbahndirektion", "lat": "47.273215", "lon": "11.40527"}, {"uid": "61677", "name": "Burgenlandstra\u00dfe", "lat": "47.259247", "lon": "11.414272"}, {"uid": "61564", "name": "B\u00fcrgerstra\u00dfe", "lat": "47.264684", "lon": "11.390378"}, {"uid": "65411", "name": "Burgstall", "lat": "47.230261", "lon": "11.382113"}, {"uid": "61539", "name": "Chemieinstitut", "lat": "47.260011", "lon": "11.381857"}, {"uid": "64081", "name": "Chirurgie", "lat": "47.261607", "lon": "11.384076"}, {"uid": "61571", "name": "Cineplexx", "lat": "47.256258", "lon": "11.395402"}, {"uid": "61581", "name": "Claudiaplatz", "lat": "47.27601", "lon": "11.405499"}, {"uid": "64339", "name": "Congress/Hofburg", "lat": "47.270147", "lon": "11.395355"}, {"uid": "61591", "name": "Defreggerstra\u00dfe", "lat": "47.265047", "lon": "11.409361"}, {"uid": "68133", "name": "DEZ Nord", "lat": "47.263545", "lon": "11.428768"}, {"uid": "62096", "name": "DEZ Ost", "lat": "47.262492", "lon": "11.434444"}, {"uid": "64207", "name": "DEZ S\u00fcd", "lat": "47.26213", "lon": "11.431188"}, {"uid": "64090", "name": "Dorfstra\u00dfe", "lat": "47.227547", "lon": "11.375451"}, {"uid": "61595", "name": "Dr.-Glatz-Stra\u00dfe", "lat": "47.262481", "lon": "11.41317"}, {"uid": "61525", "name": "Dr.-Stumpf-Stra\u00dfe", "lat": "47.256404", "lon": "11.373367"}, {"uid": "61602", "name": "Dreiheiligenstra\u00dfe", "lat": "47.268855", "lon": "11.405631"}, {"uid": "61616", "name": "Egerdachstra\u00dfe", "lat": "47.266685", "lon": "11.419565"}, {"uid": "65378", "name": "Eichat Burger", "lat": "47.294652", "lon": "11.514051"}, {"uid": "62059", "name": "Eichat Daniel-Swarovski-Str.", "lat": "47.303039", "lon": "11.519525"}, {"uid": "65376", "name": "Eichat F\u00f6hrenwald", "lat": "47.299848", "lon": "11.51862"}, {"uid": "65372", "name": "Eichat Mitterhoferstra\u00dfe", "lat": "47.301833", "lon": "11.513873"}, {"uid": "64004", "name": "EKZ West", "lat": "47.264893", "lon": "11.372303"}, {"uid": "68369", "name": "Etrichgasse", "lat": "47.267907", "lon": "11.433308"}, {"uid": "61527", "name": "Exlgasse", "lat": "47.262001", "lon": "11.370476"}, {"uid": "61665", "name": "Falbeson Regensb. H\u00fctte", "lat": "47.046982", "lon": "11.231575"}, {"uid": "67083", "name": "Feldeler", "lat": "47.215", "lon": "11.375363"}, {"uid": "62225", "name": "Ferdinandeum", "lat": "47.266704", "lon": "11.397585"}, {"uid": "65384", "name": "Ferdinand-Weyrer-Stra\u00dfe", "lat": "47.280729", "lon": "11.409264"}, {"uid": "62312", "name": "Fernau", "lat": "47.108104", "lon": "11.297764"}, {"uid": "64002", "name": "Finanzamt", "lat": "47.265345", "lon": "11.387993"}, {"uid": "65373", "name": "Finkenberg", "lat": "47.304109", "lon": "11.51532"}, {"uid": "61518", "name": "Fischerh\u00e4uslweg", "lat": "47.260593", "lon": "11.365338"}, {"uid": "61552", "name": "Fischnalerstra\u00dfe", "lat": "47.263987", "lon": "11.380359"}, {"uid": "61521", "name": "Flughafen", "lat": "47.257458", "lon": "11.351419"}, {"uid": "61569", "name": "Franz-Fischer-Stra\u00dfe", "lat": "47.259391", "lon": "11.391813"}, {"uid": "62095", "name": "Freibad Tivoli", "lat": "47.261358", "lon": "11.406262"}, {"uid": "61538", "name": "Freiburger Br\u00fccke", "lat": "47.258594", "lon": "11.380515"}, {"uid": "65344", "name": "Fulpmes Bahnhof", "lat": "47.155552", "lon": "11.352422"}, {"uid": "65316", "name": "Fulpmes Br\u00fccke", "lat": "47.150163", "lon": "11.352275"}, {"uid": "68365", "name": "Fulpmes HTL", "lat": "47.150377", "lon": "11.351195"}, {"uid": "65319", "name": "Fulpmes Industriezone Nord", "lat": "47.135726", "lon": "11.339222"}, {"uid": "61674", "name": "Fulpmes Industriezone S\u00fcd", "lat": "47.133444", "lon": "11.340453"}, {"uid": "65314", "name": "Fulpmes Jagerh\u00e4usl", "lat": "47.153673", "lon": "11.357115"}, {"uid": "62517", "name": "Fulpmes Kirchplatz", "lat": "47.153207", "lon": "11.348408"}, {"uid": "61662", "name": "Fulpmes Kohlstatt", "lat": "47.14755", "lon": "11.351295"}, {"uid": "65317", "name": "Fulpmes Ortsmitte/Hypo", "lat": "47.151937", "lon": "11.348137"}, {"uid": "62514", "name": "Fulpmes Schlick 2000", "lat": "47.15553", "lon": "11.343655"}, {"uid": "68256", "name": "Fulpmes Schlick 2000 Parkplatz", "lat": "47.156869", "lon": "11.345382"}, {"uid": "64003", "name": "F\u00fcrstenweg", "lat": "47.266072", "lon": "11.383285"}, {"uid": "62520", "name": "Gabelsbergerstra\u00dfe", "lat": "47.265955", "lon": "11.412358"}, {"uid": "67061", "name": "G\u00e4rberbach", "lat": "47.24225", "lon": "11.389725"}, {"uid": "65334", "name": "Gasteig", "lat": "47.072713", "lon": "11.259295"}, {"uid": "61869", "name": "Gemeindeamt", "lat": "47.234525", "lon": "11.375859"}, {"uid": "61619", "name": "Geyrstra\u00dfe", "lat": "47.260946", "lon": "11.426949"}, {"uid": "64253", "name": "Gletscherblick", "lat": "47.226172", "lon": "11.40923"}, {"uid": "61650", "name": "Gluirschegg", "lat": "47.243053", "lon": "11.401397"}, {"uid": "61681", "name": "Grabenweg", "lat": "47.264974", "lon": "11.438828"}, {"uid": "61541", "name": "Grauer Stein", "lat": "47.268126", "lon": "11.367215"}, {"uid": "68168", "name": "Grawa Alm", "lat": "47.01452", "lon": "11.18687"}, {"uid": "65399", "name": "Grenobler Br\u00fccke", "lat": "47.27582", "lon": "11.433222"}, {"uid": "61624", "name": "Griesauweg", "lat": "47.267678", "lon": "11.438901"}, {"uid": "61543", "name": "Gro\u00dfer Gott", "lat": "47.26834", "lon": "11.370783"}, {"uid": "61678", "name": "Gumppstra\u00dfe", "lat": "47.267798", "lon": "11.422845"}, {"uid": "61535", "name": "Hafen", "lat": "47.255581", "lon": "11.376227"}, {"uid": "65394", "name": "Hall i. T. Abzw. Bahnhof", "lat": "47.279001", "lon": "11.501418"}, {"uid": "65396", "name": "Hall i. T. Brixner Stra\u00dfe", "lat": "47.280033", "lon": "11.494514"}, {"uid": "65392", "name": "Hall i. T. Burgfrieden", "lat": "47.277115", "lon": "11.487215"}, {"uid": "62305", "name": "Hall i. T. Galgenfeldstra\u00dfe", "lat": "47.281791", "lon": "11.520497"}, {"uid": "65383", "name": "Hall i. T. Gerbergasse", "lat": "47.280064", "lon": "11.504309"}, {"uid": "65381", "name": "Hall i. T. Knapp S\u00e4gewerk", "lat": "47.287718", "lon": "11.502845"}, {"uid": "64215", "name": "Hall i. T. Krankenhaus", "lat": "47.283046", "lon": "11.514953"}, {"uid": "61671", "name": "Hall i. T. Kugelanger", "lat": "47.279796", "lon": "11.500865"}, {"uid": "64216", "name": "Hall i. T. Kurhaus", "lat": "47.28297", "lon": "11.509177"}, {"uid": "61955", "name": "Hall i. T. Milser Stra\u00dfe", "lat": "47.283503", "lon": "11.520805"}, {"uid": "65382", "name": "Hall i. T. Patergraben", "lat": "47.282947", "lon": "11.505086"}, {"uid": "65393", "name": "Hall i. T. R\u00f6hrenwerk", "lat": "47.277866", "lon": "11.493385"}, {"uid": "68462", "name": "Hall i. T. Salzburger Stra\u00dfe", "lat": "47.280764", "lon": "11.512827"}, {"uid": "68417", "name": "Hall i. T. Sewerstra\u00dfe", "lat": "47.284622", "lon": "11.501758"}, {"uid": "61307", "name": "Hall i. T. Stadtgraben", "lat": "47.280835", "lon": "11.504552"}, {"uid": "65397", "name": "Hall i. T. Trientlstra\u00dfe", "lat": "47.279978", "lon": "11.489439"}, {"uid": "64218", "name": "Hall i. T. Unterer Stadtplatz", "lat": "47.280461", "lon": "11.505921"}, {"uid": "61636", "name": "Hallenbad O-Dorf", "lat": "47.269086", "lon": "11.447616"}, {"uid": "65386", "name": "Haller Stra\u00dfe", "lat": "47.276782", "lon": "11.425696"}, {"uid": "294", "name": "Hall-Thaur Bahnhof", "lat": "47.276633", "lon": "11.475423"}, {"uid": "65385", "name": "Hans-Maier-Stra\u00dfe", "lat": "47.278491", "lon": "11.420123"}, {"uid": "61504", "name": "Hans-Unterm\u00fcller-Stra\u00dfe", "lat": "47.26474", "lon": "11.330415"}, {"uid": "1187", "name": "Hauptbahnhof", "lat": "47.263813", "lon": "11.400267"}, {"uid": "66405", "name": "Haus d. Begegnung", "lat": "47.27318", "lon": "11.395983"}, {"uid": "61672", "name": "H\u00e4usern/Kreisverkehr", "lat": "47.271288", "lon": "11.495227"}, {"uid": "61584", "name": "Haydnplatz", "lat": "47.277377", "lon": "11.406813"}, {"uid": "61612", "name": "Hegnerstra\u00dfe", "lat": "47.271603", "lon": "11.42242"}, {"uid": "62306", "name": "Heiliggeiststra\u00dfe", "lat": "47.261551", "lon": "11.397319"}, {"uid": "61629", "name": "Helblingstra\u00dfe", "lat": "47.25415", "lon": "11.405497"}, {"uid": "61631", "name": "Hochhaus Sch\u00fctzenstra\u00dfe", "lat": "47.275354", "lon": "11.432502"}, {"uid": "61588", "name": "Hoher Weg", "lat": "47.280827", "lon": "11.404213"}, {"uid": "65410", "name": "H\u00f6lltal", "lat": "47.23858", "lon": "11.384697"}, {"uid": "61515", "name": "H\u00f6rtnaglstra\u00dfe", "lat": "47.269196", "lon": "11.360218"}, {"uid": "68309", "name": "Hotel Mutterberg", "lat": "47.012073", "lon": "11.157138"}, {"uid": "61549", "name": "H\u00f6ttinger Auffahrt", "lat": "47.265077", "lon": "11.377647"}, {"uid": "66482", "name": "H\u00f6ttinger Kirchplatz", "lat": "47.271408", "lon": "11.386752"}, {"uid": "65352", "name": "Hungerburg Terrassensdlg.", "lat": "47.283723", "lon": "11.394534"}, {"uid": "65347", "name": "Igler Stra\u00dfe Kraftwerk", "lat": "47.249907", "lon": "11.404965"}, {"uid": "64249", "name": "Igls Alte Talstation", "lat": "47.229792", "lon": "11.413813"}, {"uid": "64248", "name": "Igls Altes Rathaus", "lat": "47.230401", "lon": "11.407"}, {"uid": "65409", "name": "Igls Bahnhof", "lat": "47.23385", "lon": "11.412747"}, {"uid": "65348", "name": "Igls Ortsmitte", "lat": "47.230865", "lon": "11.409825"}, {"uid": "61577", "name": "Ing.-Etzel-Stra\u00dfe", "lat": "47.269595", "lon": "11.402748"}, {"uid": "61524", "name": "Ingenuin-Fischler-Stra\u00dfe", "lat": "47.255137", "lon": "11.368862"}, {"uid": "62308", "name": "Innerauten", "lat": "47.099418", "lon": "11.290152"}, {"uid": "66447", "name": "Innrain/Campus WIFI", "lat": "47.257225", "lon": "11.378489"}, {"uid": "66428", "name": "Innstra\u00dfe", "lat": "47.271479", "lon": "11.392048"}, {"uid": "65367", "name": "Isserbr\u00fccke", "lat": "47.293856", "lon": "11.473606"}, {"uid": "61634", "name": "J.-Kerschbaumer-Stra\u00dfe", "lat": "47.272105", "lon": "11.443366"}, {"uid": "61611", "name": "Jugendherberge", "lat": "47.273728", "lon": "11.427726"}, {"uid": "64233", "name": "Kaisersch\u00fctzenplatz", "lat": "47.25818", "lon": "11.396958"}, {"uid": "61635", "name": "Kajetan-Sweth-Stra\u00dfe", "lat": "47.270418", "lon": "11.445266"}, {"uid": "65358", "name": "Kalkofenweg", "lat": "47.281942", "lon": "11.420882"}, {"uid": "65320", "name": "Kampl", "lat": "47.127132", "lon": "11.334118"}, {"uid": "65368", "name": "Kinzachhof", "lat": "47.293607", "lon": "11.482685"}, {"uid": "61501", "name": "Klammgr\u00fcnde", "lat": "47.266669", "lon": "11.329921"}, {"uid": "61505", "name": "Klammstra\u00dfe", "lat": "47.26244", "lon": "11.329669"}, {"uid": "61614", "name": "Klappholzstra\u00dfe", "lat": "47.269505", "lon": "11.419566"}, {"uid": "62432", "name": "Klaus \u00c4uele", "lat": "47.055023", "lon": "11.239824"}, {"uid": "61545", "name": "Klausener Stra\u00dfe", "lat": "47.268931", "lon": "11.377494"}, {"uid": "68371", "name": "Kletterzentrum", "lat": "47.276581", "lon": "11.412767"}, {"uid": "66430", "name": "Klinik/Universit\u00e4t", "lat": "47.263896", "lon": "11.386662"}, {"uid": "66402", "name": "Kochstra\u00dfe", "lat": "47.272867", "lon": "11.400377"}, {"uid": "2223", "name": "Kranebitten Bahnhof", "lat": "47.269448", "lon": "11.327428"}, {"uid": "62282", "name": "Kranebitten S\u00fcd", "lat": "47.261611", "lon": "11.328966"}, {"uid": "61502", "name": "Kranebitterbodenweg", "lat": "47.264762", "lon": "11.329473"}, {"uid": "65419", "name": "Kreith", "lat": "47.202669", "lon": "11.380819"}, {"uid": "65332", "name": "Kr\u00f6\u00dfbach Edelwei\u00df", "lat": "47.081581", "lon": "11.270013"}, {"uid": "62238", "name": "Kr\u00f6\u00dfbach Lift", "lat": "47.077594", "lon": "11.263189"}, {"uid": "65333", "name": "Kr\u00f6\u00dfbach Ort", "lat": "47.079677", "lon": "11.265644"}, {"uid": "61637", "name": "Kugelfangweg", "lat": "47.27203", "lon": "11.446578"}, {"uid": "61509", "name": "Lahntalweg", "lat": "47.267693", "lon": "11.34808"}, {"uid": "61986", "name": "Landesgericht", "lat": "47.262472", "lon": "11.391597"}, {"uid": "61559", "name": "Landesmuseum", "lat": "47.266858", "lon": "11.398542"}, {"uid": "64080", "name": "Langstra\u00dfe", "lat": "47.264925", "lon": "11.412915"}, {"uid": "64250", "name": "Lans Dorf", "lat": "47.23833", "lon": "11.430355"}, {"uid": "61985", "name": "Lans R\u00f6merstra\u00dfe", "lat": "47.237825", "lon": "11.433225"}, {"uid": "64239", "name": "Lans Sennerei", "lat": "47.239552", "lon": "11.434699"}, {"uid": "67008", "name": "Lanser Moos", "lat": "47.238124", "lon": "11.436828"}, {"uid": "65408", "name": "Lanser See", "lat": "47.238613", "lon": "11.419369"}, {"uid": "65407", "name": "Lans-Sistrans", "lat": "47.241091", "lon": "11.423725"}, {"uid": "68399", "name": "Layrstra\u00dfe", "lat": "47.265408", "lon": "11.379341"}, {"uid": "61590", "name": "Leipziger Platz", "lat": "47.264511", "lon": "11.406006"}, {"uid": "61516", "name": "Leonhardweg", "lat": "47.269313", "lon": "11.36361"}, {"uid": "66407", "name": "Leopoldstra\u00dfe", "lat": "47.261983", "lon": "11.39494"}, {"uid": "61517", "name": "Lohbachsiedlung Ost", "lat": "47.263478", "lon": "11.356798"}, {"uid": "61511", "name": "Lohbachsiedlung West", "lat": "47.263458", "lon": "11.351758"}, {"uid": "61618", "name": "L\u00f6nsstra\u00dfe", "lat": "47.263866", "lon": "11.424192"}, {"uid": "61579", "name": "L\u00f6wenhaus/ORF", "lat": "47.275245", "lon": "11.397445"}, {"uid": "61620", "name": "Luigenstra\u00dfe", "lat": "47.25868", "lon": "11.435098"}, {"uid": "65421", "name": "Luimes", "lat": "47.172877", "lon": "11.36733"}, {"uid": "61507", "name": "Luis-Zuegg-Stra\u00dfe", "lat": "47.266572", "lon": "11.345981"}, {"uid": "66429", "name": "Mariahilfpark", "lat": "47.267865", "lon": "11.387095"}, {"uid": "61557", "name": "Maria-Theresien-Stra\u00dfe", "lat": "47.266958", "lon": "11.393176"}, {"uid": "62500", "name": "Marktplatz", "lat": "47.267515", "lon": "11.390996"}, {"uid": "66403", "name": "Martin-Luther-Platz/HAK", "lat": "47.276613", "lon": "11.401528"}, {"uid": "61563", "name": "Maximilianstra\u00dfe", "lat": "47.262391", "lon": "11.39118"}, {"uid": "61550", "name": "MED-EL", "lat": "47.263159", "lon": "11.374695"}, {"uid": "65318", "name": "Medraz Dorf", "lat": "47.142221", "lon": "11.342043"}, {"uid": "61663", "name": "Medraz Stille", "lat": "47.139728", "lon": "11.343335"}, {"uid": "62501", "name": "Meinhardstra\u00dfe", "lat": "47.266405", "lon": "11.399093"}, {"uid": "65371", "name": "Melans", "lat": "47.299522", "lon": "11.50965"}, {"uid": "61534", "name": "Mentlberg", "lat": "47.249675", "lon": "11.371262"}, {"uid": "211", "name": "Messe Bahnhof", "lat": "47.273054", "lon": "11.408024"}, {"uid": "61679", "name": "Messe/Zeughaus", "lat": "47.271197", "lon": "11.404483"}, {"uid": "61343", "name": "Michael-Gaismair-Stra\u00dfe", "lat": "47.260574", "lon": "11.395513"}, {"uid": "65309", "name": "Mieders Danzl", "lat": "47.177941", "lon": "11.393001"}, {"uid": "65311", "name": "Mieders Gemeindeamt", "lat": "47.169693", "lon": "11.381146"}, {"uid": "65313", "name": "Mieders Gewerbepark", "lat": "47.157305", "lon": "11.36551"}, {"uid": "61659", "name": "Mieders Hinterhochegg", "lat": "47.161593", "lon": "11.376116"}, {"uid": "65312", "name": "Mieders Hotel Serles", "lat": "47.167683", "lon": "11.379753"}, {"uid": "65310", "name": "Mieders Oweges", "lat": "47.173408", "lon": "11.387243"}, {"uid": "61660", "name": "Mieders Raika", "lat": "47.17119", "lon": "11.383218"}, {"uid": "65315", "name": "Mieders Serlesbahnen", "lat": "47.164049", "lon": "11.379218"}, {"uid": "65328", "name": "Milders Br\u00fccke", "lat": "47.102702", "lon": "11.288191"}, {"uid": "65330", "name": "Milders Luener", "lat": "47.09546", "lon": "11.279955"}, {"uid": "65329", "name": "Milders Ort", "lat": "47.099039", "lon": "11.283386"}, {"uid": "65327", "name": "Milders Rosengarten", "lat": "47.104951", "lon": "11.291762"}, {"uid": "61604", "name": "Mitterhoferstra\u00dfe", "lat": "47.270902", "lon": "11.41293"}, {"uid": "61523", "name": "Mitterweg", "lat": "47.257327", "lon": "11.368091"}, {"uid": "61540", "name": "Mitterweg Unterf\u00fchrung", "lat": "47.258979", "lon": "11.375415"}, {"uid": "61582", "name": "Mozartstra\u00dfe", "lat": "47.275609", "lon": "11.409194"}, {"uid": "65357", "name": "M\u00fchlau", "lat": "47.28324", "lon": "11.413103"}, {"uid": "64340", "name": "M\u00fchlauer Br\u00fccke", "lat": "47.278646", "lon": "11.403417"}, {"uid": "61643", "name": "M\u00fchlenweg", "lat": "47.28227", "lon": "11.41573"}, {"uid": "65406", "name": "M\u00fchlsee", "lat": "47.24463", "lon": "11.43138"}, {"uid": "61558", "name": "Museumstra\u00dfe", "lat": "47.267305", "lon": "11.395439"}, {"uid": "61682", "name": "Mutters Bahnhof", "lat": "47.228711", "lon": "11.378341"}, {"uid": "65307", "name": "Natterer Auffahrt", "lat": "47.241928", "lon": "11.389804"}, {"uid": "64316", "name": "Natters Bahnhof", "lat": "47.232944", "lon": "11.37853"}, {"uid": "64092", "name": "Natters Ort", "lat": "47.233808", "lon": "11.373294"}, {"uid": "65322", "name": "Neder", "lat": "47.121824", "lon": "11.326445"}, {"uid": "65387", "name": "Neu Arzl", "lat": "47.277003", "lon": "11.441293"}, {"uid": "68126", "name": "Neugasteig", "lat": "47.075163", "lon": "11.261366"}, {"uid": "65389", "name": "Neu-Rum Abzw. Gartenweg", "lat": "47.277936", "lon": "11.451157"}, {"uid": "65388", "name": "Neu-Rum Abzw. Innstra\u00dfe", "lat": "47.277563", "lon": "11.446717"}, {"uid": "61639", "name": "Neu-Rum Flurstra\u00dfe", "lat": "47.274286", "lon": "11.453803"}, {"uid": "68459", "name": "Neu-Rum Glungezerstra\u00dfe", "lat": "47.27599", "lon": "11.451901"}, {"uid": "61640", "name": "Neu-Rum Kaplanstra\u00dfe", "lat": "47.275777", "lon": "11.4565"}, {"uid": "61457", "name": "Neu-Rum Kirche", "lat": "47.27357", "lon": "11.44906"}, {"uid": "61638", "name": "Neu-Rum Siemensstra\u00dfe", "lat": "47.272856", "lon": "11.448475"}, {"uid": "68458", "name": "Neu-Rum Volksschule", "lat": "47.274755", "lon": "11.448777"}, {"uid": "62310", "name": "Neustift i. St. Kindergarten", "lat": "47.108718", "lon": "11.304735"}, {"uid": "62309", "name": "Neustift i.St. Freizeitzentrum", "lat": "47.107291", "lon": "11.304216"}, {"uid": "65325", "name": "Neustift Ortsmitte", "lat": "47.110329", "lon": "11.306269"}, {"uid": "65416", "name": "Nockhofweg Muttereralmbahn", "lat": "47.224269", "lon": "11.371775"}, {"uid": "65353", "name": "Nordkette", "lat": "47.285809", "lon": "11.398949"}, {"uid": "65351", "name": "\u00d6lberg", "lat": "47.279401", "lon": "11.388455"}, {"uid": "62127", "name": "Olympiabr\u00fccke", "lat": "47.257992", "lon": "11.40524"}, {"uid": "64234", "name": "Olympiaworld", "lat": "47.258227", "lon": "11.40785"}, {"uid": "61594", "name": "Pacherstra\u00dfe", "lat": "47.260344", "lon": "11.40966"}, {"uid": "61655", "name": "Patscherkofel", "lat": "47.222141", "lon": "11.425633"}, {"uid": "61608", "name": "Pauluskirche", "lat": "47.273086", "lon": "11.416048"}, {"uid": "61508", "name": "Peerhofsiedlung", "lat": "47.268884", "lon": "11.34615"}, {"uid": "61533", "name": "Peterbr\u00fcnnl", "lat": "47.250597", "lon": "11.369668"}, {"uid": "61532", "name": "Peterbr\u00fcnnlweg", "lat": "47.251409", "lon": "11.368179"}, {"uid": "62492", "name": "Philippine-Welser-Stra\u00dfe", "lat": "47.257912", "lon": "11.422893"}, {"uid": "61536", "name": "Pirmingasse", "lat": "47.261858", "lon": "11.365162"}, {"uid": "61632", "name": "Piuskirche", "lat": "47.274053", "lon": "11.437906"}, {"uid": "65350", "name": "Plattenhof", "lat": "47.276245", "lon": "11.386464"}, {"uid": "66401", "name": "Polizeidirektion", "lat": "47.269875", "lon": "11.399712"}, {"uid": "61597", "name": "Pradler Friedhof", "lat": "47.259214", "lon": "11.421138"}, {"uid": "61603", "name": "Pradler Stra\u00dfe", "lat": "47.269518", "lon": "11.409326"}, {"uid": "61530", "name": "Primelweg", "lat": "47.252698", "lon": "11.360453"}, {"uid": "61609", "name": "Radetzkystra\u00dfe", "lat": "47.275233", "lon": "11.419883"}, {"uid": "61664", "name": "Rain", "lat": "47.11392", "lon": "11.311843"}, {"uid": "65417", "name": "Raitis", "lat": "47.218291", "lon": "11.374811"}, {"uid": "61666", "name": "Ranalt", "lat": "47.034959", "lon": "11.223735"}, {"uid": "61522", "name": "Rehgasse", "lat": "47.25593", "lon": "11.363047"}, {"uid": "61607", "name": "Reithmannstra\u00dfe", "lat": "47.271154", "lon": "11.416848"}, {"uid": "61336", "name": "Rennerschule", "lat": "47.268523", "lon": "11.411768"}, {"uid": "66487", "name": "Riedgasse", "lat": "47.274488", "lon": "11.392702"}, {"uid": "61658", "name": "Romedihof", "lat": "47.236834", "lon": "11.417235"}, {"uid": "62307", "name": "Rossau West", "lat": "47.270683", "lon": "11.428559"}, {"uid": "61610", "name": "Ro\u00dfbachstra\u00dfe", "lat": "47.275057", "lon": "11.423843"}, {"uid": "65398", "name": "Rotadlerstra\u00dfe", "lat": "47.275838", "lon": "11.437076"}, {"uid": "61596", "name": "Rudolf-Greinz-Stra\u00dfe", "lat": "47.261811", "lon": "11.4163"}, {"uid": "1186", "name": "Rum Bahnhof", "lat": "47.277843", "lon": "11.455693"}, {"uid": "61647", "name": "Rum Dorfplatz", "lat": "47.287212", "lon": "11.457208"}, {"uid": "65363", "name": "Rum Murstra\u00dfe", "lat": "47.286788", "lon": "11.452571"}, {"uid": "65364", "name": "Rum Ost", "lat": "47.286722", "lon": "11.461883"}, {"uid": "61646", "name": "Rum Sanatorium", "lat": "47.288731", "lon": "11.448252"}, {"uid": "61542", "name": "Sadrach", "lat": "47.269635", "lon": "11.368676"}, {"uid": "65331", "name": "Schaller", "lat": "47.090228", "lon": "11.277779"}, {"uid": "65326", "name": "Scheibe", "lat": "47.108522", "lon": "11.301096"}, {"uid": "61868", "name": "Schidlachstra\u00dfe", "lat": "47.258216", "lon": "11.397341"}, {"uid": "65349", "name": "Schlerngasse", "lat": "47.274755", "lon": "11.389394"}, {"uid": "64235", "name": "Schloss Ambras", "lat": "47.255668", "lon": "11.429872"}, {"uid": "61983", "name": "Schloss B\u00fcchsenhausen", "lat": "47.276186", "lon": "11.393759"}, {"uid": "61544", "name": "Schlotthofweg", "lat": "47.268466", "lon": "11.373239"}, {"uid": "66427", "name": "Schmelzergasse", "lat": "47.273596", "lon": "11.393926"}, {"uid": "64277", "name": "Sch\u00f6nberg i.St. Gemeindeamt", "lat": "47.186086", "lon": "11.405005"}, {"uid": "65308", "name": "Sch\u00f6nberg i.St. Stubai Center", "lat": "47.182652", "lon": "11.398448"}, {"uid": "65403", "name": "Sch\u00f6nruh", "lat": "47.254316", "lon": "11.430983"}, {"uid": "65359", "name": "Schrottstra\u00dfe/Novapark", "lat": "47.28202", "lon": "11.424218"}, {"uid": "61644", "name": "Schusterbergweg", "lat": "47.281676", "lon": "11.431125"}, {"uid": "61599", "name": "Schutzengelkirche", "lat": "47.265858", "lon": "11.416686"}, {"uid": "61633", "name": "Sch\u00fctzenstra\u00dfe", "lat": "47.273677", "lon": "11.442981"}, {"uid": "61606", "name": "Sebastian-Scheel-Stra\u00dfe", "lat": "47.273859", "lon": "11.41181"}, {"uid": "61528", "name": "Sieglanger", "lat": "47.253835", "lon": "11.354948"}, {"uid": "61531", "name": "Sieglanger Schule", "lat": "47.251848", "lon": "11.36516"}, {"uid": "61630", "name": "Siemens", "lat": "47.277163", "lon": "11.431815"}, {"uid": "61628", "name": "Sillh\u00f6fe", "lat": "47.257087", "lon": "11.404166"}, {"uid": "61589", "name": "Sillpark", "lat": "47.26615", "lon": "11.402511"}, {"uid": "64240", "name": "Sistrans Dorf", "lat": "47.238306", "lon": "11.447112"}, {"uid": "64241", "name": "Sistrans Hackenhof", "lat": "47.24159", "lon": "11.456446"}, {"uid": "64268", "name": "Sonnenburgerhof", "lat": "47.246411", "lon": "11.393608"}, {"uid": "61547", "name": "Sonnenstra\u00dfe", "lat": "47.266368", "lon": "11.376333"}, {"uid": "68351", "name": "Sonnpark", "lat": "47.263337", "lon": "11.408691"}, {"uid": "64209", "name": "SOS-Kinderdorf", "lat": "47.260375", "lon": "11.447944"}, {"uid": "61548", "name": "Speckweg", "lat": "47.266175", "lon": "11.372974"}, {"uid": "61529", "name": "Speikweg", "lat": "47.253299", "lon": "11.357081"}, {"uid": "61613", "name": "St.Pirmin/Volkshaus", "lat": "47.26965", "lon": "11.425039"}, {"uid": "62001", "name": "Stackler", "lat": "47.104196", "lon": "11.300683"}, {"uid": "64006", "name": "Standsch\u00fctzenkaserne", "lat": "47.26523", "lon": "11.324712"}, {"uid": "61519", "name": "Steinbockweg", "lat": "47.259305", "lon": "11.361109"}, {"uid": "1190", "name": "Stift Wilten", "lat": "47.253336", "lon": "11.399877"}, {"uid": "61670", "name": "Stubaier Gletscher", "lat": "47.011197", "lon": "11.155541"}, {"uid": "66421", "name": "Stubaitalbahnhof", "lat": "47.253545", "lon": "11.397554"}, {"uid": "68162", "name": "StuBay", "lat": "47.159483", "lon": "11.353"}, {"uid": "64346", "name": "S\u00fcdring", "lat": "47.260775", "lon": "11.419438"}, {"uid": "65404", "name": "Tantegert", "lat": "47.250919", "lon": "11.4228"}, {"uid": "64397", "name": "Technik", "lat": "47.265188", "lon": "11.348008"}, {"uid": "61675", "name": "Technik West", "lat": "47.265035", "lon": "11.340875"}, {"uid": "61673", "name": "Technikerhaus", "lat": "47.260816", "lon": "11.379241"}, {"uid": "61622", "name": "Technologiezentrum Ost", "lat": "47.264706", "lon": "11.434656"}, {"uid": "68368", "name": "Technologiezentrum West", "lat": "47.265206", "lon": "11.431917"}, {"uid": "65420", "name": "Telfer Wiesen", "lat": "47.18928", "lon": "11.386025"}, {"uid": "65342", "name": "Telfes i. St. Ort", "lat": "47.165116", "lon": "11.359877"}, {"uid": "61566", "name": "Templstra\u00dfe", "lat": "47.25943", "lon": "11.393634"}, {"uid": "64396", "name": "Terminal Marktplatz", "lat": "47.266544", "lon": "11.390113"}, {"uid": "65365", "name": "Thaur Auweg", "lat": "47.291057", "lon": "11.47109"}, {"uid": "65366", "name": "Thaur Mitte", "lat": "47.293533", "lon": "11.47147"}, {"uid": "61649", "name": "Thaur West", "lat": "47.289363", "lon": "11.46529"}, {"uid": "65354", "name": "Theresienkirche", "lat": "47.286373", "lon": "11.398021"}, {"uid": "61526", "name": "Tiergartenstra\u00dfe", "lat": "47.259335", "lon": "11.369139"}, {"uid": "61575", "name": "Tirol Panorama", "lat": "47.250806", "lon": "11.400831"}, {"uid": "61335", "name": "Tivoli Stadion", "lat": "47.257016", "lon": "11.412297"}, {"uid": "61626", "name": "Trientlgasse", "lat": "47.269979", "lon": "11.433833"}, {"uid": "66413", "name": "Triumphpforte/Casino", "lat": "47.262741", "lon": "11.395479"}, {"uid": "61586", "name": "Trogerstra\u00dfe", "lat": "47.276518", "lon": "11.396545"}, {"uid": "61668", "name": "Tschangelair Alm", "lat": "47.022831", "lon": "11.212668"}, {"uid": "61510", "name": "Tschiggfreystra\u00dfe", "lat": "47.267287", "lon": "11.350914"}, {"uid": "61578", "name": "Tschurtschenthalerstra\u00dfe", "lat": "47.274103", "lon": "11.399821"}, {"uid": "65402", "name": "Tummelplatz", "lat": "47.255044", "lon": "11.428008"}, {"uid": "61520", "name": "Uni-Sportst\u00e4tten", "lat": "47.257508", "lon": "11.356267"}, {"uid": "61551", "name": "Unterbergerstra\u00dfe", "lat": "47.263727", "lon": "11.376803"}, {"uid": "64247", "name": "Vill Dorfstra\u00dfe", "lat": "47.236449", "lon": "11.402349"}, {"uid": "61984", "name": "Villa Blanka", "lat": "47.279326", "lon": "11.396968"}, {"uid": "64005", "name": "V\u00f6gelebichl", "lat": "47.264024", "lon": "11.363729"}, {"uid": "65335", "name": "Volderau", "lat": "47.067778", "lon": "11.254217"}, {"uid": "62246", "name": "V\u00f6ls Bahnhof/Landesstra\u00dfe", "lat": "47.255851", "lon": "11.322034"}, {"uid": "64116", "name": "V\u00f6ls Cyta S\u00fcd", "lat": "47.255333", "lon": "11.325475"}, {"uid": "1189", "name": "Westbahnhof", "lat": "47.256325", "lon": "11.391808"}, {"uid": "61570", "name": "Westfriedhof", "lat": "47.257232", "lon": "11.38446"}, {"uid": "61627", "name": "Wiesengasse", "lat": "47.255252", "lon": "11.411683"}, {"uid": "65355", "name": "Wohnheim H\u00f6tting", "lat": "47.272802", "lon": "11.38725"}, {"uid": "61583", "name": "Wohnheim Saggen", "lat": "47.275749", "lon": "11.410641"}, {"uid": "62386", "name": "Ziegelei/Haftanstalt", "lat": "47.25025", "lon": "11.352447"}, {"uid": "68308", "name": "3S-Eisgratbahn", "lat": "47.013236", "lon": "11.162801"}, {"uid": "65380", "name": "Absam Breitweg", "lat": "47.292025", "lon": "11.504271"}, {"uid": "65379", "name": "Absam Dorf", "lat": "47.295279", "lon": "11.505455"}, {"uid": "65369", "name": "Absam Kirche", "lat": "47.295908", "lon": "11.501054"}, {"uid": "65370", "name": "Absam Stainerstra\u00dfe", "lat": "47.298237", "lon": "11.506683"}, {"uid": "65324", "name": "Abzw. Elferbahn", "lat": "47.111373", "lon": "11.30904"}, {"uid": "65405", "name": "Aldrans", "lat": "47.247821", "lon": "11.434978"}, {"uid": "64237", "name": "Aldrans Dorfplatz", "lat": "47.250977", "lon": "11.445876"}, {"uid": "64242", "name": "Aldrans Fagslung", "lat": "47.245112", "lon": "11.46201"}, {"uid": "64236", "name": "Aldrans Felseneck", "lat": "47.252", "lon": "11.4397"}, {"uid": "64238", "name": "Aldrans Freizeitzentrum", "lat": "47.243907", "lon": "11.437717"}, {"uid": "61345", "name": "Aldrans Haidegger", "lat": "47.246568", "lon": "11.439595"}, {"uid": "61512", "name": "Allerheiligen", "lat": "47.268288", "lon": "11.355613"}, {"uid": "61513", "name": "Allerheiligenh\u00f6fe", "lat": "47.269536", "lon": "11.355694"}, {"uid": "61587", "name": "Alpenzoo", "lat": "47.281865", "lon": "11.400006"}, {"uid": "61863", "name": "Ampfererstra\u00dfe Ersatzhaltestelle", "lat": "47.260831", "lon": "11.376557"}, {"uid": "61598", "name": "Amras", "lat": "47.258617", "lon": "11.42561"}, {"uid": "64208", "name": "Amras Ort", "lat": "47.258996", "lon": "11.430761"}, {"uid": "61592", "name": "Amraser Stra\u00dfe", "lat": "47.263838", "lon": "11.409009"}, {"uid": "61615", "name": "Andechsstra\u00dfe", "lat": "47.267226", "lon": "11.422696"}, {"uid": "61503", "name": "Andreas-Dipauli-Stra\u00dfe", "lat": "47.266793", "lon": "11.332434"}, {"uid": "65374", "name": "Andreas-Hofer-Kaserne", "lat": "47.303489", "lon": "11.504817"}, {"uid": "61676", "name": "Angergasse", "lat": "47.261263", "lon": "11.367806"}, {"uid": "61565", "name": "Anichstra\u00dfe/Rathausg.", "lat": "47.265115", "lon": "11.393549"}, {"uid": "65356", "name": "Anton-Rauch-Stra\u00dfe", "lat": "47.282016", "lon": "11.407248"}, {"uid": "64010", "name": "Arbeitsmarktservice Innsbruck", "lat": "47.259452", "lon": "11.393238"}, {"uid": "65361", "name": "Arzl Ost", "lat": "47.284672", "lon": "11.435936"}, {"uid": "65360", "name": "Arzl West", "lat": "47.283713", "lon": "11.432549"}, {"uid": "65418", "name": "Au\u00dferkreith", "lat": "47.209419", "lon": "11.378241"}, {"uid": "65323", "name": "Au\u00dferrain", "lat": "47.120378", "lon": "11.32117"}, {"uid": "68132", "name": "Badhaussiedlung", "lat": "47.225234", "lon": "11.429583"}, {"uid": "61623", "name": "Baggersee", "lat": "47.265541", "lon": "11.442208"}, {"uid": "61573", "name": "Basilika Wilten", "lat": "47.254916", "lon": "11.398572"}, {"uid": "61514", "name": "Berchtoldshof", "lat": "47.270147", "lon": "11.359777"}, {"uid": "61574", "name": "Bergisel", "lat": "47.252814", "lon": "11.400081"}, {"uid": "68420", "name": "Bergiselweg Innsbruck", "lat": "47.250222", "lon": "11.395508"}, {"uid": "61621", "name": "Bernhard-H\u00f6fel-Str.", "lat": "47.264572", "lon": "11.428781"}, {"uid": "68145", "name": "Bettelwurfsiedlung", "lat": "47.305797", "lon": "11.51931"}, {"uid": "65321", "name": "Bichl", "lat": "47.123451", "lon": "11.331476"}, {"uid": "65415", "name": "Birchfeld", "lat": "47.228527", "lon": "11.367744"}, {"uid": "61546", "name": "Botanikerstra\u00dfe", "lat": "47.267677", "lon": "11.380942"}, {"uid": "66425", "name": "Bozner Platz", "lat": "47.265134", "lon": "11.397512"}, {"uid": "68104", "name": "Brandeck", "lat": "47.196886", "lon": "11.382775"}, {"uid": "61553", "name": "Brandjochstra\u00dfe", "lat": "47.270051", "lon": "11.381542"}, {"uid": "65401", "name": "Bretterkeller", "lat": "47.252894", "lon": "11.404669"}, {"uid": "68493", "name": "BRG in der Au Ersatzhaltestelle", "lat": "47.26453", "lon": "11.374951"}, {"uid": "61576", "name": "Brunecker Stra\u00dfe/BFI", "lat": "47.266883", "lon": "11.401827"}, {"uid": "61580", "name": "Bundesbahndirektion", "lat": "47.273215", "lon": "11.40527"}, {"uid": "61677", "name": "Burgenlandstra\u00dfe", "lat": "47.259247", "lon": "11.414272"}, {"uid": "61564", "name": "B\u00fcrgerstra\u00dfe", "lat": "47.264684", "lon": "11.390378"}, {"uid": "65411", "name": "Burgstall", "lat": "47.230261", "lon": "11.382113"}, {"uid": "61539", "name": "Chemieinstitut", "lat": "47.260011", "lon": "11.381857"}, {"uid": "64081", "name": "Chirurgie", "lat": "47.261607", "lon": "11.384076"}, {"uid": "61571", "name": "Cineplexx", "lat": "47.256258", "lon": "11.395402"}, {"uid": "61581", "name": "Claudiaplatz", "lat": "47.27601", "lon": "11.405499"}, {"uid": "64339", "name": "Congress/Hofburg", "lat": "47.270147", "lon": "11.395355"}, {"uid": "61591", "name": "Defreggerstra\u00dfe", "lat": "47.265047", "lon": "11.409361"}, {"uid": "68133", "name": "DEZ Nord", "lat": "47.263545", "lon": "11.428768"}, {"uid": "62096", "name": "DEZ Ost", "lat": "47.262492", "lon": "11.434444"}, {"uid": "64207", "name": "DEZ S\u00fcd", "lat": "47.26213", "lon": "11.431188"}, {"uid": "64090", "name": "Dorfstra\u00dfe", "lat": "47.227547", "lon": "11.375451"}, {"uid": "61595", "name": "Dr.-Glatz-Stra\u00dfe", "lat": "47.262481", "lon": "11.41317"}, {"uid": "61525", "name": "Dr.-Stumpf-Stra\u00dfe", "lat": "47.256404", "lon": "11.373367"}, {"uid": "61602", "name": "Dreiheiligenstra\u00dfe", "lat": "47.268855", "lon": "11.405631"}, {"uid": "61616", "name": "Egerdachstra\u00dfe", "lat": "47.266685", "lon": "11.419565"}, {"uid": "65378", "name": "Eichat Burger", "lat": "47.294652", "lon": "11.514051"}, {"uid": "62059", "name": "Eichat Daniel-Swarovski-Str.", "lat": "47.303039", "lon": "11.519525"}, {"uid": "65376", "name": "Eichat F\u00f6hrenwald", "lat": "47.299848", "lon": "11.51862"}, {"uid": "65372", "name": "Eichat Mitterhoferstra\u00dfe", "lat": "47.301833", "lon": "11.513873"}, {"uid": "64004", "name": "EKZ West", "lat": "47.264893", "lon": "11.372303"}, {"uid": "68369", "name": "Etrichgasse", "lat": "47.267907", "lon": "11.433308"}, {"uid": "61527", "name": "Exlgasse", "lat": "47.262001", "lon": "11.370476"}, {"uid": "61665", "name": "Falbeson Regensb. H\u00fctte", "lat": "47.046982", "lon": "11.231575"}, {"uid": "67083", "name": "Feldeler", "lat": "47.215", "lon": "11.375363"}, {"uid": "62225", "name": "Ferdinandeum", "lat": "47.266704", "lon": "11.397585"}, {"uid": "65384", "name": "Ferdinand-Weyrer-Stra\u00dfe", "lat": "47.280729", "lon": "11.409264"}, {"uid": "62312", "name": "Fernau", "lat": "47.108104", "lon": "11.297764"}, {"uid": "64002", "name": "Finanzamt", "lat": "47.265345", "lon": "11.387993"}, {"uid": "65373", "name": "Finkenberg", "lat": "47.304109", "lon": "11.51532"}, {"uid": "61518", "name": "Fischerh\u00e4uslweg", "lat": "47.260593", "lon": "11.365338"}, {"uid": "61552", "name": "Fischnalerstra\u00dfe", "lat": "47.263987", "lon": "11.380359"}, {"uid": "61521", "name": "Flughafen", "lat": "47.257458", "lon": "11.351419"}, {"uid": "61569", "name": "Franz-Fischer-Stra\u00dfe", "lat": "47.259391", "lon": "11.391813"}, {"uid": "62095", "name": "Freibad Tivoli", "lat": "47.261358", "lon": "11.406262"}, {"uid": "61538", "name": "Freiburger Br\u00fccke", "lat": "47.258594", "lon": "11.380515"}, {"uid": "65344", "name": "Fulpmes Bahnhof", "lat": "47.155552", "lon": "11.352422"}, {"uid": "65316", "name": "Fulpmes Br\u00fccke", "lat": "47.150163", "lon": "11.352275"}, {"uid": "68365", "name": "Fulpmes HTL", "lat": "47.150377", "lon": "11.351195"}, {"uid": "65319", "name": "Fulpmes Industriezone Nord", "lat": "47.135726", "lon": "11.339222"}, {"uid": "61674", "name": "Fulpmes Industriezone S\u00fcd", "lat": "47.133444", "lon": "11.340453"}, {"uid": "65314", "name": "Fulpmes Jagerh\u00e4usl", "lat": "47.153673", "lon": "11.357115"}, {"uid": "62517", "name": "Fulpmes Kirchplatz", "lat": "47.153207", "lon": "11.348408"}, {"uid": "61662", "name": "Fulpmes Kohlstatt", "lat": "47.14755", "lon": "11.351295"}, {"uid": "65317", "name": "Fulpmes Ortsmitte/Hypo", "lat": "47.151937", "lon": "11.348137"}, {"uid": "62514", "name": "Fulpmes Schlick 2000", "lat": "47.15553", "lon": "11.343655"}, {"uid": "68256", "name": "Fulpmes Schlick 2000 Parkplatz", "lat": "47.156869", "lon": "11.345382"}, {"uid": "64003", "name": "F\u00fcrstenweg", "lat": "47.266072", "lon": "11.383285"}, {"uid": "62520", "name": "Gabelsbergerstra\u00dfe", "lat": "47.265955", "lon": "11.412358"}, {"uid": "67061", "name": "G\u00e4rberbach", "lat": "47.24225", "lon": "11.389725"}, {"uid": "65334", "name": "Gasteig", "lat": "47.072713", "lon": "11.259295"}, {"uid": "61869", "name": "Gemeindeamt", "lat": "47.234525", "lon": "11.375859"}, {"uid": "61619", "name": "Geyrstra\u00dfe", "lat": "47.260946", "lon": "11.426949"}, {"uid": "64253", "name": "Gletscherblick", "lat": "47.226172", "lon": "11.40923"}, {"uid": "61650", "name": "Gluirschegg", "lat": "47.243053", "lon": "11.401397"}, {"uid": "61681", "name": "Grabenweg", "lat": "47.264974", "lon": "11.438828"}, {"uid": "61541", "name": "Grauer Stein", "lat": "47.268126", "lon": "11.367215"}, {"uid": "68168", "name": "Grawa Alm", "lat": "47.01452", "lon": "11.18687"}, {"uid": "65399", "name": "Grenobler Br\u00fccke", "lat": "47.27582", "lon": "11.433222"}, {"uid": "61624", "name": "Griesauweg", "lat": "47.267678", "lon": "11.438901"}, {"uid": "61543", "name": "Gro\u00dfer Gott", "lat": "47.26834", "lon": "11.370783"}, {"uid": "61678", "name": "Gumppstra\u00dfe", "lat": "47.267798", "lon": "11.422845"}, {"uid": "61535", "name": "Hafen", "lat": "47.255581", "lon": "11.376227"}, {"uid": "65394", "name": "Hall i. T. Abzw. Bahnhof", "lat": "47.279001", "lon": "11.501418"}, {"uid": "65396", "name": "Hall i. T. Brixner Stra\u00dfe", "lat": "47.280033", "lon": "11.494514"}, {"uid": "65392", "name": "Hall i. T. Burgfrieden", "lat": "47.277115", "lon": "11.487215"}, {"uid": "62305", "name": "Hall i. T. Galgenfeldstra\u00dfe", "lat": "47.281791", "lon": "11.520497"}, {"uid": "65383", "name": "Hall i. T. Gerbergasse", "lat": "47.280064", "lon": "11.504309"}, {"uid": "65381", "name": "Hall i. T. Knapp S\u00e4gewerk", "lat": "47.287718", "lon": "11.502845"}, {"uid": "64215", "name": "Hall i. T. Krankenhaus", "lat": "47.283046", "lon": "11.514953"}, {"uid": "61671", "name": "Hall i. T. Kugelanger", "lat": "47.279796", "lon": "11.500865"}, {"uid": "64216", "name": "Hall i. T. Kurhaus", "lat": "47.28297", "lon": "11.509177"}, {"uid": "61955", "name": "Hall i. T. Milser Stra\u00dfe", "lat": "47.283503", "lon": "11.520805"}, {"uid": "65382", "name": "Hall i. T. Patergraben", "lat": "47.282947", "lon": "11.505086"}, {"uid": "65393", "name": "Hall i. T. R\u00f6hrenwerk", "lat": "47.277866", "lon": "11.493385"}, {"uid": "68462", "name": "Hall i. T. Salzburger Stra\u00dfe", "lat": "47.280764", "lon": "11.512827"}, {"uid": "68417", "name": "Hall i. T. Sewerstra\u00dfe", "lat": "47.284622", "lon": "11.501758"}, {"uid": "61307", "name": "Hall i. T. Stadtgraben", "lat": "47.280835", "lon": "11.504552"}, {"uid": "65397", "name": "Hall i. T. Trientlstra\u00dfe", "lat": "47.279978", "lon": "11.489439"}, {"uid": "64218", "name": "Hall i. T. Unterer Stadtplatz", "lat": "47.280461", "lon": "11.505921"}, {"uid": "61636", "name": "Hallenbad O-Dorf", "lat": "47.269086", "lon": "11.447616"}, {"uid": "65386", "name": "Haller Stra\u00dfe", "lat": "47.276782", "lon": "11.425696"}, {"uid": "294", "name": "Hall-Thaur Bahnhof", "lat": "47.276633", "lon": "11.475423"}, {"uid": "65385", "name": "Hans-Maier-Stra\u00dfe", "lat": "47.278491", "lon": "11.420123"}, {"uid": "61504", "name": "Hans-Unterm\u00fcller-Stra\u00dfe", "lat": "47.26474", "lon": "11.330415"}, {"uid": "1187", "name": "Hauptbahnhof", "lat": "47.263813", "lon": "11.400267"}, {"uid": "66405", "name": "Haus d. Begegnung", "lat": "47.27318", "lon": "11.395983"}, {"uid": "61672", "name": "H\u00e4usern/Kreisverkehr", "lat": "47.271288", "lon": "11.495227"}, {"uid": "61584", "name": "Haydnplatz", "lat": "47.277377", "lon": "11.406813"}, {"uid": "61612", "name": "Hegnerstra\u00dfe", "lat": "47.271603", "lon": "11.42242"}, {"uid": "62306", "name": "Heiliggeiststra\u00dfe", "lat": "47.261551", "lon": "11.397319"}, {"uid": "61629", "name": "Helblingstra\u00dfe", "lat": "47.25415", "lon": "11.405497"}, {"uid": "61631", "name": "Hochhaus Sch\u00fctzenstra\u00dfe", "lat": "47.275354", "lon": "11.432502"}, {"uid": "61588", "name": "Hoher Weg", "lat": "47.280827", "lon": "11.404213"}, {"uid": "65410", "name": "H\u00f6lltal", "lat": "47.23858", "lon": "11.384697"}, {"uid": "61515", "name": "H\u00f6rtnaglstra\u00dfe", "lat": "47.269196", "lon": "11.360218"}, {"uid": "68309", "name": "Hotel Mutterberg", "lat": "47.012073", "lon": "11.157138"}, {"uid": "61549", "name": "H\u00f6ttinger Auffahrt", "lat": "47.265077", "lon": "11.377647"}, {"uid": "66482", "name": "H\u00f6ttinger Kirchplatz", "lat": "47.271408", "lon": "11.386752"}, {"uid": "65352", "name": "Hungerburg Terrassensdlg.", "lat": "47.283723", "lon": "11.394534"}, {"uid": "65347", "name": "Igler Stra\u00dfe Kraftwerk", "lat": "47.249907", "lon": "11.404965"}, {"uid": "64249", "name": "Igls Alte Talstation", "lat": "47.229792", "lon": "11.413813"}, {"uid": "64248", "name": "Igls Altes Rathaus", "lat": "47.230401", "lon": "11.407"}, {"uid": "65409", "name": "Igls Bahnhof", "lat": "47.23385", "lon": "11.412747"}, {"uid": "65348", "name": "Igls Ortsmitte", "lat": "47.230865", "lon": "11.409825"}, {"uid": "61577", "name": "Ing.-Etzel-Stra\u00dfe", "lat": "47.269595", "lon": "11.402748"}, {"uid": "61524", "name": "Ingenuin-Fischler-Stra\u00dfe", "lat": "47.255137", "lon": "11.368862"}, {"uid": "62308", "name": "Innerauten", "lat": "47.099418", "lon": "11.290152"}, {"uid": "66447", "name": "Innrain/Campus WIFI", "lat": "47.257225", "lon": "11.378489"}, {"uid": "66428", "name": "Innstra\u00dfe", "lat": "47.271479", "lon": "11.392048"}, {"uid": "65367", "name": "Isserbr\u00fccke", "lat": "47.293856", "lon": "11.473606"}, {"uid": "61634", "name": "J.-Kerschbaumer-Stra\u00dfe", "lat": "47.272105", "lon": "11.443366"}, {"uid": "61611", "name": "Jugendherberge", "lat": "47.273728", "lon": "11.427726"}, {"uid": "64233", "name": "Kaisersch\u00fctzenplatz", "lat": "47.25818", "lon": "11.396958"}, {"uid": "61635", "name": "Kajetan-Sweth-Stra\u00dfe", "lat": "47.270418", "lon": "11.445266"}, {"uid": "65358", "name": "Kalkofenweg", "lat": "47.281942", "lon": "11.420882"}, {"uid": "65320", "name": "Kampl", "lat": "47.127132", "lon": "11.334118"}, {"uid": "65368", "name": "Kinzachhof", "lat": "47.293607", "lon": "11.482685"}, {"uid": "61501", "name": "Klammgr\u00fcnde", "lat": "47.266669", "lon": "11.329921"}, {"uid": "61505", "name": "Klammstra\u00dfe", "lat": "47.26244", "lon": "11.329669"}, {"uid": "61614", "name": "Klappholzstra\u00dfe", "lat": "47.269505", "lon": "11.419566"}, {"uid": "62432", "name": "Klaus \u00c4uele", "lat": "47.055023", "lon": "11.239824"}, {"uid": "61545", "name": "Klausener Stra\u00dfe", "lat": "47.268931", "lon": "11.377494"}, {"uid": "68371", "name": "Kletterzentrum", "lat": "47.276581", "lon": "11.412767"}, {"uid": "66430", "name": "Klinik/Universit\u00e4t", "lat": "47.263896", "lon": "11.386662"}, {"uid": "66402", "name": "Kochstra\u00dfe", "lat": "47.272867", "lon": "11.400377"}, {"uid": "2223", "name": "Kranebitten Bahnhof", "lat": "47.269448", "lon": "11.327428"}, {"uid": "62282", "name": "Kranebitten S\u00fcd", "lat": "47.261611", "lon": "11.328966"}, {"uid": "61502", "name": "Kranebitterbodenweg", "lat": "47.264762", "lon": "11.329473"}, {"uid": "65419", "name": "Kreith", "lat": "47.202669", "lon": "11.380819"}, {"uid": "65332", "name": "Kr\u00f6\u00dfbach Edelwei\u00df", "lat": "47.081581", "lon": "11.270013"}, {"uid": "62238", "name": "Kr\u00f6\u00dfbach Lift", "lat": "47.077594", "lon": "11.263189"}, {"uid": "65333", "name": "Kr\u00f6\u00dfbach Ort", "lat": "47.079677", "lon": "11.265644"}, {"uid": "61637", "name": "Kugelfangweg", "lat": "47.27203", "lon": "11.446578"}, {"uid": "61509", "name": "Lahntalweg", "lat": "47.267693", "lon": "11.34808"}, {"uid": "61986", "name": "Landesgericht", "lat": "47.262472", "lon": "11.391597"}, {"uid": "61559", "name": "Landesmuseum", "lat": "47.266858", "lon": "11.398542"}, {"uid": "64080", "name": "Langstra\u00dfe", "lat": "47.264925", "lon": "11.412915"}, {"uid": "64250", "name": "Lans Dorf", "lat": "47.23833", "lon": "11.430355"}, {"uid": "61985", "name": "Lans R\u00f6merstra\u00dfe", "lat": "47.237825", "lon": "11.433225"}, {"uid": "64239", "name": "Lans Sennerei", "lat": "47.239552", "lon": "11.434699"}, {"uid": "67008", "name": "Lanser Moos", "lat": "47.238124", "lon": "11.436828"}, {"uid": "65408", "name": "Lanser See", "lat": "47.238613", "lon": "11.419369"}, {"uid": "65407", "name": "Lans-Sistrans", "lat": "47.241091", "lon": "11.423725"}, {"uid": "68399", "name": "Layrstra\u00dfe", "lat": "47.265408", "lon": "11.379341"}, {"uid": "61590", "name": "Leipziger Platz", "lat": "47.264511", "lon": "11.406006"}, {"uid": "61516", "name": "Leonhardweg", "lat": "47.269313", "lon": "11.36361"}, {"uid": "66407", "name": "Leopoldstra\u00dfe", "lat": "47.261983", "lon": "11.39494"}, {"uid": "61517", "name": "Lohbachsiedlung Ost", "lat": "47.263478", "lon": "11.356798"}, {"uid": "61511", "name": "Lohbachsiedlung West", "lat": "47.263458", "lon": "11.351758"}, {"uid": "61618", "name": "L\u00f6nsstra\u00dfe", "lat": "47.263866", "lon": "11.424192"}, {"uid": "61579", "name": "L\u00f6wenhaus/ORF", "lat": "47.275245", "lon": "11.397445"}, {"uid": "61620", "name": "Luigenstra\u00dfe", "lat": "47.25868", "lon": "11.435098"}, {"uid": "65421", "name": "Luimes", "lat": "47.172877", "lon": "11.36733"}, {"uid": "61507", "name": "Luis-Zuegg-Stra\u00dfe", "lat": "47.266572", "lon": "11.345981"}, {"uid": "66429", "name": "Mariahilfpark", "lat": "47.267865", "lon": "11.387095"}, {"uid": "61557", "name": "Maria-Theresien-Stra\u00dfe", "lat": "47.266958", "lon": "11.393176"}, {"uid": "62500", "name": "Marktplatz", "lat": "47.267515", "lon": "11.390996"}, {"uid": "66403", "name": "Martin-Luther-Platz/HAK", "lat": "47.276613", "lon": "11.401528"}, {"uid": "61563", "name": "Maximilianstra\u00dfe", "lat": "47.262391", "lon": "11.39118"}, {"uid": "61550", "name": "MED-EL", "lat": "47.263159", "lon": "11.374695"}, {"uid": "65318", "name": "Medraz Dorf", "lat": "47.142221", "lon": "11.342043"}, {"uid": "61663", "name": "Medraz Stille", "lat": "47.139728", "lon": "11.343335"}, {"uid": "62501", "name": "Meinhardstra\u00dfe", "lat": "47.266405", "lon": "11.399093"}, {"uid": "65371", "name": "Melans", "lat": "47.299522", "lon": "11.50965"}, {"uid": "61534", "name": "Mentlberg", "lat": "47.249675", "lon": "11.371262"}, {"uid": "211", "name": "Messe Bahnhof", "lat": "47.273054", "lon": "11.408024"}, {"uid": "61679", "name": "Messe/Zeughaus", "lat": "47.271197", "lon": "11.404483"}, {"uid": "61343", "name": "Michael-Gaismair-Stra\u00dfe", "lat": "47.260574", "lon": "11.395513"}, {"uid": "65309", "name": "Mieders Danzl", "lat": "47.177941", "lon": "11.393001"}, {"uid": "65311", "name": "Mieders Gemeindeamt", "lat": "47.169693", "lon": "11.381146"}, {"uid": "65313", "name": "Mieders Gewerbepark", "lat": "47.157305", "lon": "11.36551"}, {"uid": "61659", "name": "Mieders Hinterhochegg", "lat": "47.161593", "lon": "11.376116"}, {"uid": "65312", "name": "Mieders Hotel Serles", "lat": "47.167683", "lon": "11.379753"}, {"uid": "65310", "name": "Mieders Oweges", "lat": "47.173408", "lon": "11.387243"}, {"uid": "61660", "name": "Mieders Raika", "lat": "47.17119", "lon": "11.383218"}, {"uid": "65315", "name": "Mieders Serlesbahnen", "lat": "47.164049", "lon": "11.379218"}, {"uid": "65328", "name": "Milders Br\u00fccke", "lat": "47.102702", "lon": "11.288191"}, {"uid": "65330", "name": "Milders Luener", "lat": "47.09546", "lon": "11.279955"}, {"uid": "65329", "name": "Milders Ort", "lat": "47.099039", "lon": "11.283386"}, {"uid": "65327", "name": "Milders Rosengarten", "lat": "47.104951", "lon": "11.291762"}, {"uid": "61604", "name": "Mitterhoferstra\u00dfe", "lat": "47.270902", "lon": "11.41293"}, {"uid": "61523", "name": "Mitterweg", "lat": "47.257327", "lon": "11.368091"}, {"uid": "61540", "name": "Mitterweg Unterf\u00fchrung", "lat": "47.258979", "lon": "11.375415"}, {"uid": "61582", "name": "Mozartstra\u00dfe", "lat": "47.275609", "lon": "11.409194"}, {"uid": "65357", "name": "M\u00fchlau", "lat": "47.28324", "lon": "11.413103"}, {"uid": "64340", "name": "M\u00fchlauer Br\u00fccke", "lat": "47.278646", "lon": "11.403417"}, {"uid": "61643", "name": "M\u00fchlenweg", "lat": "47.28227", "lon": "11.41573"}, {"uid": "65406", "name": "M\u00fchlsee", "lat": "47.24463", "lon": "11.43138"}, {"uid": "61558", "name": "Museumstra\u00dfe", "lat": "47.267305", "lon": "11.395439"}, {"uid": "61682", "name": "Mutters Bahnhof", "lat": "47.228711", "lon": "11.378341"}, {"uid": "65307", "name": "Natterer Auffahrt", "lat": "47.241928", "lon": "11.389804"}, {"uid": "64316", "name": "Natters Bahnhof", "lat": "47.232944", "lon": "11.37853"}, {"uid": "64092", "name": "Natters Ort", "lat": "47.233808", "lon": "11.373294"}, {"uid": "65322", "name": "Neder", "lat": "47.121824", "lon": "11.326445"}, {"uid": "65387", "name": "Neu Arzl", "lat": "47.277003", "lon": "11.441293"}, {"uid": "68126", "name": "Neugasteig", "lat": "47.075163", "lon": "11.261366"}, {"uid": "65389", "name": "Neu-Rum Abzw. Gartenweg", "lat": "47.277936", "lon": "11.451157"}, {"uid": "65388", "name": "Neu-Rum Abzw. Innstra\u00dfe", "lat": "47.277563", "lon": "11.446717"}, {"uid": "61639", "name": "Neu-Rum Flurstra\u00dfe", "lat": "47.274286", "lon": "11.453803"}, {"uid": "68459", "name": "Neu-Rum Glungezerstra\u00dfe", "lat": "47.27599", "lon": "11.451901"}, {"uid": "61640", "name": "Neu-Rum Kaplanstra\u00dfe", "lat": "47.275777", "lon": "11.4565"}, {"uid": "61457", "name": "Neu-Rum Kirche", "lat": "47.27357", "lon": "11.44906"}, {"uid": "61638", "name": "Neu-Rum Siemensstra\u00dfe", "lat": "47.272856", "lon": "11.448475"}, {"uid": "68458", "name": "Neu-Rum Volksschule", "lat": "47.274755", "lon": "11.448777"}, {"uid": "62310", "name": "Neustift i. St. Kindergarten", "lat": "47.108718", "lon": "11.304735"}, {"uid": "62309", "name": "Neustift i.St. Freizeitzentrum", "lat": "47.107291", "lon": "11.304216"}, {"uid": "65325", "name": "Neustift Ortsmitte", "lat": "47.110329", "lon": "11.306269"}, {"uid": "65416", "name": "Nockhofweg Muttereralmbahn", "lat": "47.224269", "lon": "11.371775"}, {"uid": "65353", "name": "Nordkette", "lat": "47.285809", "lon": "11.398949"}, {"uid": "65351", "name": "\u00d6lberg", "lat": "47.279401", "lon": "11.388455"}, {"uid": "62127", "name": "Olympiabr\u00fccke", "lat": "47.257992", "lon": "11.40524"}, {"uid": "64234", "name": "Olympiaworld", "lat": "47.258227", "lon": "11.40785"}, {"uid": "61594", "name": "Pacherstra\u00dfe", "lat": "47.260344", "lon": "11.40966"}, {"uid": "61655", "name": "Patscherkofel", "lat": "47.222141", "lon": "11.425633"}, {"uid": "61608", "name": "Pauluskirche", "lat": "47.273086", "lon": "11.416048"}, {"uid": "61508", "name": "Peerhofsiedlung", "lat": "47.268884", "lon": "11.34615"}, {"uid": "61533", "name": "Peterbr\u00fcnnl", "lat": "47.250597", "lon": "11.369668"}, {"uid": "61532", "name": "Peterbr\u00fcnnlweg", "lat": "47.251409", "lon": "11.368179"}, {"uid": "62492", "name": "Philippine-Welser-Stra\u00dfe", "lat": "47.257912", "lon": "11.422893"}, {"uid": "61536", "name": "Pirmingasse", "lat": "47.261858", "lon": "11.365162"}, {"uid": "61632", "name": "Piuskirche", "lat": "47.274053", "lon": "11.437906"}, {"uid": "65350", "name": "Plattenhof", "lat": "47.276245", "lon": "11.386464"}, {"uid": "66401", "name": "Polizeidirektion", "lat": "47.269875", "lon": "11.399712"}, {"uid": "61597", "name": "Pradler Friedhof", "lat": "47.259214", "lon": "11.421138"}, {"uid": "61603", "name": "Pradler Stra\u00dfe", "lat": "47.269518", "lon": "11.409326"}, {"uid": "61530", "name": "Primelweg", "lat": "47.252698", "lon": "11.360453"}, {"uid": "61609", "name": "Radetzkystra\u00dfe", "lat": "47.275233", "lon": "11.419883"}, {"uid": "61664", "name": "Rain", "lat": "47.11392", "lon": "11.311843"}, {"uid": "65417", "name": "Raitis", "lat": "47.218291", "lon": "11.374811"}, {"uid": "61666", "name": "Ranalt", "lat": "47.034959", "lon": "11.223735"}, {"uid": "61522", "name": "Rehgasse", "lat": "47.25593", "lon": "11.363047"}, {"uid": "61607", "name": "Reithmannstra\u00dfe", "lat": "47.271154", "lon": "11.416848"}, {"uid": "61336", "name": "Rennerschule", "lat": "47.268523", "lon": "11.411768"}, {"uid": "66487", "name": "Riedgasse", "lat": "47.274488", "lon": "11.392702"}, {"uid": "61658", "name": "Romedihof", "lat": "47.236834", "lon": "11.417235"}, {"uid": "62307", "name": "Rossau West", "lat": "47.270683", "lon": "11.428559"}, {"uid": "61610", "name": "Ro\u00dfbachstra\u00dfe", "lat": "47.275057", "lon": "11.423843"}, {"uid": "65398", "name": "Rotadlerstra\u00dfe", "lat": "47.275838", "lon": "11.437076"}, {"uid": "61596", "name": "Rudolf-Greinz-Stra\u00dfe", "lat": "47.261811", "lon": "11.4163"}, {"uid": "1186", "name": "Rum Bahnhof", "lat": "47.277843", "lon": "11.455693"}, {"uid": "61647", "name": "Rum Dorfplatz", "lat": "47.287212", "lon": "11.457208"}, {"uid": "65363", "name": "Rum Murstra\u00dfe", "lat": "47.286788", "lon": "11.452571"}, {"uid": "65364", "name": "Rum Ost", "lat": "47.286722", "lon": "11.461883"}, {"uid": "61646", "name": "Rum Sanatorium", "lat": "47.288731", "lon": "11.448252"}, {"uid": "61542", "name": "Sadrach", "lat": "47.269635", "lon": "11.368676"}, {"uid": "65331", "name": "Schaller", "lat": "47.090228", "lon": "11.277779"}, {"uid": "65326", "name": "Scheibe", "lat": "47.108522", "lon": "11.301096"}, {"uid": "61868", "name": "Schidlachstra\u00dfe", "lat": "47.258216", "lon": "11.397341"}, {"uid": "65349", "name": "Schlerngasse", "lat": "47.274755", "lon": "11.389394"}, {"uid": "64235", "name": "Schloss Ambras", "lat": "47.255668", "lon": "11.429872"}, {"uid": "61983", "name": "Schloss B\u00fcchsenhausen", "lat": "47.276186", "lon": "11.393759"}, {"uid": "61544", "name": "Schlotthofweg", "lat": "47.268466", "lon": "11.373239"}, {"uid": "66427", "name": "Schmelzergasse", "lat": "47.273596", "lon": "11.393926"}, {"uid": "64277", "name": "Sch\u00f6nberg i.St. Gemeindeamt", "lat": "47.186086", "lon": "11.405005"}, {"uid": "65308", "name": "Sch\u00f6nberg i.St. Stubai Center", "lat": "47.182652", "lon": "11.398448"}, {"uid": "65403", "name": "Sch\u00f6nruh", "lat": "47.254316", "lon": "11.430983"}, {"uid": "65359", "name": "Schrottstra\u00dfe/Novapark", "lat": "47.28202", "lon": "11.424218"}, {"uid": "61644", "name": "Schusterbergweg", "lat": "47.281676", "lon": "11.431125"}, {"uid": "61599", "name": "Schutzengelkirche", "lat": "47.265858", "lon": "11.416686"}, {"uid": "61633", "name": "Sch\u00fctzenstra\u00dfe", "lat": "47.273677", "lon": "11.442981"}, {"uid": "61606", "name": "Sebastian-Scheel-Stra\u00dfe", "lat": "47.273859", "lon": "11.41181"}, {"uid": "61528", "name": "Sieglanger", "lat": "47.253835", "lon": "11.354948"}, {"uid": "61531", "name": "Sieglanger Schule", "lat": "47.251848", "lon": "11.36516"}, {"uid": "61630", "name": "Siemens", "lat": "47.277163", "lon": "11.431815"}, {"uid": "61628", "name": "Sillh\u00f6fe", "lat": "47.257087", "lon": "11.404166"}, {"uid": "61589", "name": "Sillpark", "lat": "47.26615", "lon": "11.402511"}, {"uid": "64240", "name": "Sistrans Dorf", "lat": "47.238306", "lon": "11.447112"}, {"uid": "64241", "name": "Sistrans Hackenhof", "lat": "47.24159", "lon": "11.456446"}, {"uid": "64268", "name": "Sonnenburgerhof", "lat": "47.246411", "lon": "11.393608"}, {"uid": "61547", "name": "Sonnenstra\u00dfe", "lat": "47.266368", "lon": "11.376333"}, {"uid": "68351", "name": "Sonnpark", "lat": "47.263337", "lon": "11.408691"}, {"uid": "64209", "name": "SOS-Kinderdorf", "lat": "47.260375", "lon": "11.447944"}, {"uid": "61548", "name": "Speckweg", "lat": "47.266175", "lon": "11.372974"}, {"uid": "61529", "name": "Speikweg", "lat": "47.253299", "lon": "11.357081"}, {"uid": "61613", "name": "St.Pirmin/Volkshaus", "lat": "47.26965", "lon": "11.425039"}, {"uid": "62001", "name": "Stackler", "lat": "47.104196", "lon": "11.300683"}, {"uid": "64006", "name": "Standsch\u00fctzenkaserne", "lat": "47.26523", "lon": "11.324712"}, {"uid": "61519", "name": "Steinbockweg", "lat": "47.259305", "lon": "11.361109"}, {"uid": "1190", "name": "Stift Wilten", "lat": "47.253336", "lon": "11.399877"}, {"uid": "61670", "name": "Stubaier Gletscher", "lat": "47.011197", "lon": "11.155541"}, {"uid": "66421", "name": "Stubaitalbahnhof", "lat": "47.253545", "lon": "11.397554"}, {"uid": "68162", "name": "StuBay", "lat": "47.159483", "lon": "11.353"}, {"uid": "64346", "name": "S\u00fcdring", "lat": "47.260775", "lon": "11.419438"}, {"uid": "65404", "name": "Tantegert", "lat": "47.250919", "lon": "11.4228"}, {"uid": "64397", "name": "Technik", "lat": "47.265188", "lon": "11.348008"}, {"uid": "61675", "name": "Technik West", "lat": "47.265035", "lon": "11.340875"}, {"uid": "61673", "name": "Technikerhaus", "lat": "47.260816", "lon": "11.379241"}, {"uid": "61622", "name": "Technologiezentrum Ost", "lat": "47.264706", "lon": "11.434656"}, {"uid": "68368", "name": "Technologiezentrum West", "lat": "47.265206", "lon": "11.431917"}, {"uid": "65420", "name": "Telfer Wiesen", "lat": "47.18928", "lon": "11.386025"}, {"uid": "65342", "name": "Telfes i. St. Ort", "lat": "47.165116", "lon": "11.359877"}, {"uid": "61566", "name": "Templstra\u00dfe", "lat": "47.25943", "lon": "11.393634"}, {"uid": "64396", "name": "Terminal Marktplatz", "lat": "47.266544", "lon": "11.390113"}, {"uid": "65365", "name": "Thaur Auweg", "lat": "47.291057", "lon": "11.47109"}, {"uid": "65366", "name": "Thaur Mitte", "lat": "47.293533", "lon": "11.47147"}, {"uid": "61649", "name": "Thaur West", "lat": "47.289363", "lon": "11.46529"}, {"uid": "65354", "name": "Theresienkirche", "lat": "47.286373", "lon": "11.398021"}, {"uid": "61526", "name": "Tiergartenstra\u00dfe", "lat": "47.259335", "lon": "11.369139"}, {"uid": "61575", "name": "Tirol Panorama", "lat": "47.250806", "lon": "11.400831"}, {"uid": "61335", "name": "Tivoli Stadion", "lat": "47.257016", "lon": "11.412297"}, {"uid": "61626", "name": "Trientlgasse", "lat": "47.269979", "lon": "11.433833"}, {"uid": "66413", "name": "Triumphpforte/Casino", "lat": "47.262741", "lon": "11.395479"}, {"uid": "61586", "name": "Trogerstra\u00dfe", "lat": "47.276518", "lon": "11.396545"}, {"uid": "61668", "name": "Tschangelair Alm", "lat": "47.022831", "lon": "11.212668"}, {"uid": "61510", "name": "Tschiggfreystra\u00dfe", "lat": "47.267287", "lon": "11.350914"}, {"uid": "61578", "name": "Tschurtschenthalerstra\u00dfe", "lat": "47.274103", "lon": "11.399821"}, {"uid": "65402", "name": "Tummelplatz", "lat": "47.255044", "lon": "11.428008"}, {"uid": "61520", "name": "Uni-Sportst\u00e4tten", "lat": "47.257508", "lon": "11.356267"}, {"uid": "61551", "name": "Unterbergerstra\u00dfe", "lat": "47.263727", "lon": "11.376803"}, {"uid": "64247", "name": "Vill Dorfstra\u00dfe", "lat": "47.236449", "lon": "11.402349"}, {"uid": "61984", "name": "Villa Blanka", "lat": "47.279326", "lon": "11.396968"}, {"uid": "64005", "name": "V\u00f6gelebichl", "lat": "47.264024", "lon": "11.363729"}, {"uid": "65335", "name": "Volderau", "lat": "47.067778", "lon": "11.254217"}, {"uid": "62246", "name": "V\u00f6ls Bahnhof/Landesstra\u00dfe", "lat": "47.255851", "lon": "11.322034"}, {"uid": "64116", "name": "V\u00f6ls Cyta S\u00fcd", "lat": "47.255333", "lon": "11.325475"}, {"uid": "1189", "name": "Westbahnhof", "lat": "47.256325", "lon": "11.391808"}, {"uid": "61570", "name": "Westfriedhof", "lat": "47.257232", "lon": "11.38446"}, {"uid": "61627", "name": "Wiesengasse", "lat": "47.255252", "lon": "11.411683"}, {"uid": "65355", "name": "Wohnheim H\u00f6tting", "lat": "47.272802", "lon": "11.38725"}, {"uid": "61583", "name": "Wohnheim Saggen", "lat": "47.275749", "lon": "11.410641"}, {"uid": "62386", "name": "Ziegelei/Haftanstalt", "lat": "47.25025", "lon": "11.352447"}, {"uid": "68308", "name": "3S-Eisgratbahn", "lat": "47.013236", "lon": "11.162801"}, {"uid": "65380", "name": "Absam Breitweg", "lat": "47.292025", "lon": "11.504271"}, {"uid": "65379", "name": "Absam Dorf", "lat": "47.295279", "lon": "11.505455"}, {"uid": "65369", "name": "Absam Kirche", "lat": "47.295908", "lon": "11.501054"}, {"uid": "65370", "name": "Absam Stainerstra\u00dfe", "lat": "47.298237", "lon": "11.506683"}, {"uid": "65324", "name": "Abzw. Elferbahn", "lat": "47.111373", "lon": "11.30904"}, {"uid": "65405", "name": "Aldrans", "lat": "47.247821", "lon": "11.434978"}, {"uid": "64237", "name": "Aldrans Dorfplatz", "lat": "47.250977", "lon": "11.445876"}, {"uid": "64242", "name": "Aldrans Fagslung", "lat": "47.245112", "lon": "11.46201"}, {"uid": "64236", "name": "Aldrans Felseneck", "lat": "47.252", "lon": "11.4397"}, {"uid": "64238", "name": "Aldrans Freizeitzentrum", "lat": "47.243907", "lon": "11.437717"}, {"uid": "61345", "name": "Aldrans Haidegger", "lat": "47.246568", "lon": "11.439595"}, {"uid": "61512", "name": "Allerheiligen", "lat": "47.268288", "lon": "11.355613"}, {"uid": "61513", "name": "Allerheiligenh\u00f6fe", "lat": "47.269536", "lon": "11.355694"}, {"uid": "61587", "name": "Alpenzoo", "lat": "47.281865", "lon": "11.400006"}, {"uid": "61863", "name": "Ampfererstra\u00dfe Ersatzhaltestelle", "lat": "47.260831", "lon": "11.376557"}, {"uid": "61598", "name": "Amras", "lat": "47.258617", "lon": "11.42561"}, {"uid": "64208", "name": "Amras Ort", "lat": "47.258996", "lon": "11.430761"}, {"uid": "61592", "name": "Amraser Stra\u00dfe", "lat": "47.263838", "lon": "11.409009"}, {"uid": "61615", "name": "Andechsstra\u00dfe", "lat": "47.267226", "lon": "11.422696"}, {"uid": "61503", "name": "Andreas-Dipauli-Stra\u00dfe", "lat": "47.266793", "lon": "11.332434"}, {"uid": "65374", "name": "Andreas-Hofer-Kaserne", "lat": "47.303489", "lon": "11.504817"}, {"uid": "61676", "name": "Angergasse", "lat": "47.261263", "lon": "11.367806"}, {"uid": "61565", "name": "Anichstra\u00dfe/Rathausg.", "lat": "47.265115", "lon": "11.393549"}, {"uid": "65356", "name": "Anton-Rauch-Stra\u00dfe", "lat": "47.282016", "lon": "11.407248"}, {"uid": "64010", "name": "Arbeitsmarktservice Innsbruck", "lat": "47.259452", "lon": "11.393238"}, {"uid": "65361", "name": "Arzl Ost", "lat": "47.284672", "lon": "11.435936"}, {"uid": "65360", "name": "Arzl West", "lat": "47.283713", "lon": "11.432549"}, {"uid": "65418", "name": "Au\u00dferkreith", "lat": "47.209419", "lon": "11.378241"}, {"uid": "65323", "name": "Au\u00dferrain", "lat": "47.120378", "lon": "11.32117"}, {"uid": "68132", "name": "Badhaussiedlung", "lat": "47.225234", "lon": "11.429583"}, {"uid": "61623", "name": "Baggersee", "lat": "47.265541", "lon": "11.442208"}, {"uid": "61573", "name": "Basilika Wilten", "lat": "47.254916", "lon": "11.398572"}, {"uid": "61514", "name": "Berchtoldshof", "lat": "47.270147", "lon": "11.359777"}, {"uid": "61574", "name": "Bergisel", "lat": "47.252814", "lon": "11.400081"}, {"uid": "68420", "name": "Bergiselweg Innsbruck", "lat": "47.250222", "lon": "11.395508"}, {"uid": "61621", "name": "Bernhard-H\u00f6fel-Str.", "lat": "47.264572", "lon": "11.428781"}, {"uid": "68145", "name": "Bettelwurfsiedlung", "lat": "47.305797", "lon": "11.51931"}, {"uid": "65321", "name": "Bichl", "lat": "47.123451", "lon": "11.331476"}, {"uid": "65415", "name": "Birchfeld", "lat": "47.228527", "lon": "11.367744"}, {"uid": "61546", "name": "Botanikerstra\u00dfe", "lat": "47.267677", "lon": "11.380942"}, {"uid": "66425", "name": "Bozner Platz", "lat": "47.265134", "lon": "11.397512"}, {"uid": "68104", "name": "Brandeck", "lat": "47.196886", "lon": "11.382775"}, {"uid": "61553", "name": "Brandjochstra\u00dfe", "lat": "47.270051", "lon": "11.381542"}, {"uid": "65401", "name": "Bretterkeller", "lat": "47.252894", "lon": "11.404669"}, {"uid": "68493", "name": "BRG in der Au Ersatzhaltestelle", "lat": "47.26453", "lon": "11.374951"}, {"uid": "61576", "name": "Brunecker Stra\u00dfe/BFI", "lat": "47.266883", "lon": "11.401827"}, {"uid": "61580", "name": "Bundesbahndirektion", "lat": "47.273215", "lon": "11.40527"}, {"uid": "61677", "name": "Burgenlandstra\u00dfe", "lat": "47.259247", "lon": "11.414272"}, {"uid": "61564", "name": "B\u00fcrgerstra\u00dfe", "lat": "47.264684", "lon": "11.390378"}, {"uid": "65411", "name": "Burgstall", "lat": "47.230261", "lon": "11.382113"}, {"uid": "61539", "name": "Chemieinstitut", "lat": "47.260011", "lon": "11.381857"}, {"uid": "64081", "name": "Chirurgie", "lat": "47.261607", "lon": "11.384076"}, {"uid": "61571", "name": "Cineplexx", "lat": "47.256258", "lon": "11.395402"}, {"uid": "61581", "name": "Claudiaplatz", "lat": "47.27601", "lon": "11.405499"}, {"uid": "64339", "name": "Congress/Hofburg", "lat": "47.270147", "lon": "11.395355"}, {"uid": "61591", "name": "Defreggerstra\u00dfe", "lat": "47.265047", "lon": "11.409361"}, {"uid": "68133", "name": "DEZ Nord", "lat": "47.263545", "lon": "11.428768"}, {"uid": "62096", "name": "DEZ Ost", "lat": "47.262492", "lon": "11.434444"}, {"uid": "64207", "name": "DEZ S\u00fcd", "lat": "47.26213", "lon": "11.431188"}, {"uid": "64090", "name": "Dorfstra\u00dfe", "lat": "47.227547", "lon": "11.375451"}, {"uid": "61595", "name": "Dr.-Glatz-Stra\u00dfe", "lat": "47.262481", "lon": "11.41317"}, {"uid": "61525", "name": "Dr.-Stumpf-Stra\u00dfe", "lat": "47.256404", "lon": "11.373367"}, {"uid": "61602", "name": "Dreiheiligenstra\u00dfe", "lat": "47.268855", "lon": "11.405631"}, {"uid": "61616", "name": "Egerdachstra\u00dfe", "lat": "47.266685", "lon": "11.419565"}, {"uid": "65378", "name": "Eichat Burger", "lat": "47.294652", "lon": "11.514051"}, {"uid": "62059", "name": "Eichat Daniel-Swarovski-Str.", "lat": "47.303039", "lon": "11.519525"}, {"uid": "65376", "name": "Eichat F\u00f6hrenwald", "lat": "47.299848", "lon": "11.51862"}, {"uid": "65372", "name": "Eichat Mitterhoferstra\u00dfe", "lat": "47.301833", "lon": "11.513873"}, {"uid": "64004", "name": "EKZ West", "lat": "47.264893", "lon": "11.372303"}, {"uid": "68369", "name": "Etrichgasse", "lat": "47.267907", "lon": "11.433308"}, {"uid": "61527", "name": "Exlgasse", "lat": "47.262001", "lon": "11.370476"}, {"uid": "61665", "name": "Falbeson Regensb. H\u00fctte", "lat": "47.046982", "lon": "11.231575"}, {"uid": "67083", "name": "Feldeler", "lat": "47.215", "lon": "11.375363"}, {"uid": "62225", "name": "Ferdinandeum", "lat": "47.266704", "lon": "11.397585"}, {"uid": "65384", "name": "Ferdinand-Weyrer-Stra\u00dfe", "lat": "47.280729", "lon": "11.409264"}, {"uid": "62312", "name": "Fernau", "lat": "47.108104", "lon": "11.297764"}, {"uid": "64002", "name": "Finanzamt", "lat": "47.265345", "lon": "11.387993"}, {"uid": "65373", "name": "Finkenberg", "lat": "47.304109", "lon": "11.51532"}, {"uid": "61518", "name": "Fischerh\u00e4uslweg", "lat": "47.260593", "lon": "11.365338"}, {"uid": "61552", "name": "Fischnalerstra\u00dfe", "lat": "47.263987", "lon": "11.380359"}, {"uid": "61521", "name": "Flughafen", "lat": "47.257458", "lon": "11.351419"}, {"uid": "61569", "name": "Franz-Fischer-Stra\u00dfe", "lat": "47.259391", "lon": "11.391813"}, {"uid": "62095", "name": "Freibad Tivoli", "lat": "47.261358", "lon": "11.406262"}, {"uid": "61538", "name": "Freiburger Br\u00fccke", "lat": "47.258594", "lon": "11.380515"}, {"uid": "65344", "name": "Fulpmes Bahnhof", "lat": "47.155552", "lon": "11.352422"}, {"uid": "65316", "name": "Fulpmes Br\u00fccke", "lat": "47.150163", "lon": "11.352275"}, {"uid": "68365", "name": "Fulpmes HTL", "lat": "47.150377", "lon": "11.351195"}, {"uid": "65319", "name": "Fulpmes Industriezone Nord", "lat": "47.135726", "lon": "11.339222"}, {"uid": "61674", "name": "Fulpmes Industriezone S\u00fcd", "lat": "47.133444", "lon": "11.340453"}, {"uid": "65314", "name": "Fulpmes Jagerh\u00e4usl", "lat": "47.153673", "lon": "11.357115"}, {"uid": "62517", "name": "Fulpmes Kirchplatz", "lat": "47.153207", "lon": "11.348408"}, {"uid": "61662", "name": "Fulpmes Kohlstatt", "lat": "47.14755", "lon": "11.351295"}, {"uid": "65317", "name": "Fulpmes Ortsmitte/Hypo", "lat": "47.151937", "lon": "11.348137"}, {"uid": "62514", "name": "Fulpmes Schlick 2000", "lat": "47.15553", "lon": "11.343655"}, {"uid": "68256", "name": "Fulpmes Schlick 2000 Parkplatz", "lat": "47.156869", "lon": "11.345382"}, {"uid": "64003", "name": "F\u00fcrstenweg", "lat": "47.266072", "lon": "11.383285"}, {"uid": "62520", "name": "Gabelsbergerstra\u00dfe", "lat": "47.265955", "lon": "11.412358"}, {"uid": "67061", "name": "G\u00e4rberbach", "lat": "47.24225", "lon": "11.389725"}, {"uid": "65334", "name": "Gasteig", "lat": "47.072713", "lon": "11.259295"}, {"uid": "61869", "name": "Gemeindeamt", "lat": "47.234525", "lon": "11.375859"}, {"uid": "61619", "name": "Geyrstra\u00dfe", "lat": "47.260946", "lon": "11.426949"}, {"uid": "64253", "name": "Gletscherblick", "lat": "47.226172", "lon": "11.40923"}, {"uid": "61650", "name": "Gluirschegg", "lat": "47.243053", "lon": "11.401397"}, {"uid": "61681", "name": "Grabenweg", "lat": "47.264974", "lon": "11.438828"}, {"uid": "61541", "name": "Grauer Stein", "lat": "47.268126", "lon": "11.367215"}, {"uid": "68168", "name": "Grawa Alm", "lat": "47.01452", "lon": "11.18687"}, {"uid": "65399", "name": "Grenobler Br\u00fccke", "lat": "47.27582", "lon": "11.433222"}, {"uid": "61624", "name": "Griesauweg", "lat": "47.267678", "lon": "11.438901"}, {"uid": "61543", "name": "Gro\u00dfer Gott", "lat": "47.26834", "lon": "11.370783"}, {"uid": "61678", "name": "Gumppstra\u00dfe", "lat": "47.267798", "lon": "11.422845"}, {"uid": "61535", "name": "Hafen", "lat": "47.255581", "lon": "11.376227"}, {"uid": "65394", "name": "Hall i. T. Abzw. Bahnhof", "lat": "47.279001", "lon": "11.501418"}, {"uid": "65396", "name": "Hall i. T. Brixner Stra\u00dfe", "lat": "47.280033", "lon": "11.494514"}, {"uid": "65392", "name": "Hall i. T. Burgfrieden", "lat": "47.277115", "lon": "11.487215"}, {"uid": "62305", "name": "Hall i. T. Galgenfeldstra\u00dfe", "lat": "47.281791", "lon": "11.520497"}, {"uid": "65383", "name": "Hall i. T. Gerbergasse", "lat": "47.280064", "lon": "11.504309"}, {"uid": "65381", "name": "Hall i. T. Knapp S\u00e4gewerk", "lat": "47.287718", "lon": "11.502845"}, {"uid": "64215", "name": "Hall i. T. Krankenhaus", "lat": "47.283046", "lon": "11.514953"}, {"uid": "61671", "name": "Hall i. T. Kugelanger", "lat": "47.279796", "lon": "11.500865"}, {"uid": "64216", "name": "Hall i. T. Kurhaus", "lat": "47.28297", "lon": "11.509177"}, {"uid": "61955", "name": "Hall i. T. Milser Stra\u00dfe", "lat": "47.283503", "lon": "11.520805"}, {"uid": "65382", "name": "Hall i. T. Patergraben", "lat": "47.282947", "lon": "11.505086"}, {"uid": "65393", "name": "Hall i. T. R\u00f6hrenwerk", "lat": "47.277866", "lon": "11.493385"}, {"uid": "68462", "name": "Hall i. T. Salzburger Stra\u00dfe", "lat": "47.280764", "lon": "11.512827"}, {"uid": "68417", "name": "Hall i. T. Sewerstra\u00dfe", "lat": "47.284622", "lon": "11.501758"}, {"uid": "61307", "name": "Hall i. T. Stadtgraben", "lat": "47.280835", "lon": "11.504552"}, {"uid": "65397", "name": "Hall i. T. Trientlstra\u00dfe", "lat": "47.279978", "lon": "11.489439"}, {"uid": "64218", "name": "Hall i. T. Unterer Stadtplatz", "lat": "47.280461", "lon": "11.505921"}, {"uid": "61636", "name": "Hallenbad O-Dorf", "lat": "47.269086", "lon": "11.447616"}, {"uid": "65386", "name": "Haller Stra\u00dfe", "lat": "47.276782", "lon": "11.425696"}, {"uid": "294", "name": "Hall-Thaur Bahnhof", "lat": "47.276633", "lon": "11.475423"}, {"uid": "65385", "name": "Hans-Maier-Stra\u00dfe", "lat": "47.278491", "lon": "11.420123"}, {"uid": "61504", "name": "Hans-Unterm\u00fcller-Stra\u00dfe", "lat": "47.26474", "lon": "11.330415"}, {"uid": "1187", "name": "Hauptbahnhof", "lat": "47.263813", "lon": "11.400267"}, {"uid": "66405", "name": "Haus d. Begegnung", "lat": "47.27318", "lon": "11.395983"}, {"uid": "61672", "name": "H\u00e4usern/Kreisverkehr", "lat": "47.271288", "lon": "11.495227"}, {"uid": "61584", "name": "Haydnplatz", "lat": "47.277377", "lon": "11.406813"}, {"uid": "61612", "name": "Hegnerstra\u00dfe", "lat": "47.271603", "lon": "11.42242"}, {"uid": "62306", "name": "Heiliggeiststra\u00dfe", "lat": "47.261551", "lon": "11.397319"}, {"uid": "61629", "name": "Helblingstra\u00dfe", "lat": "47.25415", "lon": "11.405497"}, {"uid": "61631", "name": "Hochhaus Sch\u00fctzenstra\u00dfe", "lat": "47.275354", "lon": "11.432502"}, {"uid": "61588", "name": "Hoher Weg", "lat": "47.280827", "lon": "11.404213"}, {"uid": "65410", "name": "H\u00f6lltal", "lat": "47.23858", "lon": "11.384697"}, {"uid": "61515", "name": "H\u00f6rtnaglstra\u00dfe", "lat": "47.269196", "lon": "11.360218"}, {"uid": "68309", "name": "Hotel Mutterberg", "lat": "47.012073", "lon": "11.157138"}, {"uid": "61549", "name": "H\u00f6ttinger Auffahrt", "lat": "47.265077", "lon": "11.377647"}, {"uid": "66482", "name": "H\u00f6ttinger Kirchplatz", "lat": "47.271408", "lon": "11.386752"}, {"uid": "65352", "name": "Hungerburg Terrassensdlg.", "lat": "47.283723", "lon": "11.394534"}, {"uid": "65347", "name": "Igler Stra\u00dfe Kraftwerk", "lat": "47.249907", "lon": "11.404965"}, {"uid": "64249", "name": "Igls Alte Talstation", "lat": "47.229792", "lon": "11.413813"}, {"uid": "64248", "name": "Igls Altes Rathaus", "lat": "47.230401", "lon": "11.407"}, {"uid": "65409", "name": "Igls Bahnhof", "lat": "47.23385", "lon": "11.412747"}, {"uid": "65348", "name": "Igls Ortsmitte", "lat": "47.230865", "lon": "11.409825"}, {"uid": "61577", "name": "Ing.-Etzel-Stra\u00dfe", "lat": "47.269595", "lon": "11.402748"}, {"uid": "61524", "name": "Ingenuin-Fischler-Stra\u00dfe", "lat": "47.255137", "lon": "11.368862"}, {"uid": "62308", "name": "Innerauten", "lat": "47.099418", "lon": "11.290152"}, {"uid": "66447", "name": "Innrain/Campus WIFI", "lat": "47.257225", "lon": "11.378489"}, {"uid": "66428", "name": "Innstra\u00dfe", "lat": "47.271479", "lon": "11.392048"}, {"uid": "65367", "name": "Isserbr\u00fccke", "lat": "47.293856", "lon": "11.473606"}, {"uid": "61634", "name": "J.-Kerschbaumer-Stra\u00dfe", "lat": "47.272105", "lon": "11.443366"}, {"uid": "61611", "name": "Jugendherberge", "lat": "47.273728", "lon": "11.427726"}, {"uid": "64233", "name": "Kaisersch\u00fctzenplatz", "lat": "47.25818", "lon": "11.396958"}, {"uid": "61635", "name": "Kajetan-Sweth-Stra\u00dfe", "lat": "47.270418", "lon": "11.445266"}, {"uid": "65358", "name": "Kalkofenweg", "lat": "47.281942", "lon": "11.420882"}, {"uid": "65320", "name": "Kampl", "lat": "47.127132", "lon": "11.334118"}, {"uid": "65368", "name": "Kinzachhof", "lat": "47.293607", "lon": "11.482685"}, {"uid": "61501", "name": "Klammgr\u00fcnde", "lat": "47.266669", "lon": "11.329921"}, {"uid": "61505", "name": "Klammstra\u00dfe", "lat": "47.26244", "lon": "11.329669"}, {"uid": "61614", "name": "Klappholzstra\u00dfe", "lat": "47.269505", "lon": "11.419566"}, {"uid": "62432", "name": "Klaus \u00c4uele", "lat": "47.055023", "lon": "11.239824"}, {"uid": "61545", "name": "Klausener Stra\u00dfe", "lat": "47.268931", "lon": "11.377494"}, {"uid": "68371", "name": "Kletterzentrum", "lat": "47.276581", "lon": "11.412767"}, {"uid": "66430", "name": "Klinik/Universit\u00e4t", "lat": "47.263896", "lon": "11.386662"}, {"uid": "66402", "name": "Kochstra\u00dfe", "lat": "47.272867", "lon": "11.400377"}, {"uid": "2223", "name": "Kranebitten Bahnhof", "lat": "47.269448", "lon": "11.327428"}, {"uid": "62282", "name": "Kranebitten S\u00fcd", "lat": "47.261611", "lon": "11.328966"}, {"uid": "61502", "name": "Kranebitterbodenweg", "lat": "47.264762", "lon": "11.329473"}, {"uid": "65419", "name": "Kreith", "lat": "47.202669", "lon": "11.380819"}, {"uid": "65332", "name": "Kr\u00f6\u00dfbach Edelwei\u00df", "lat": "47.081581", "lon": "11.270013"}, {"uid": "62238", "name": "Kr\u00f6\u00dfbach Lift", "lat": "47.077594", "lon": "11.263189"}, {"uid": "65333", "name": "Kr\u00f6\u00dfbach Ort", "lat": "47.079677", "lon": "11.265644"}, {"uid": "61637", "name": "Kugelfangweg", "lat": "47.27203", "lon": "11.446578"}, {"uid": "61509", "name": "Lahntalweg", "lat": "47.267693", "lon": "11.34808"}, {"uid": "61986", "name": "Landesgericht", "lat": "47.262472", "lon": "11.391597"}, {"uid": "61559", "name": "Landesmuseum", "lat": "47.266858", "lon": "11.398542"}, {"uid": "64080", "name": "Langstra\u00dfe", "lat": "47.264925", "lon": "11.412915"}, {"uid": "64250", "name": "Lans Dorf", "lat": "47.23833", "lon": "11.430355"}, {"uid": "61985", "name": "Lans R\u00f6merstra\u00dfe", "lat": "47.237825", "lon": "11.433225"}, {"uid": "64239", "name": "Lans Sennerei", "lat": "47.239552", "lon": "11.434699"}, {"uid": "67008", "name": "Lanser Moos", "lat": "47.238124", "lon": "11.436828"}, {"uid": "65408", "name": "Lanser See", "lat": "47.238613", "lon": "11.419369"}, {"uid": "65407", "name": "Lans-Sistrans", "lat": "47.241091", "lon": "11.423725"}, {"uid": "68399", "name": "Layrstra\u00dfe", "lat": "47.265408", "lon": "11.379341"}, {"uid": "61590", "name": "Leipziger Platz", "lat": "47.264511", "lon": "11.406006"}, {"uid": "61516", "name": "Leonhardweg", "lat": "47.269313", "lon": "11.36361"}, {"uid": "66407", "name": "Leopoldstra\u00dfe", "lat": "47.261983", "lon": "11.39494"}, {"uid": "61517", "name": "Lohbachsiedlung Ost", "lat": "47.263478", "lon": "11.356798"}, {"uid": "61511", "name": "Lohbachsiedlung West", "lat": "47.263458", "lon": "11.351758"}, {"uid": "61618", "name": "L\u00f6nsstra\u00dfe", "lat": "47.263866", "lon": "11.424192"}, {"uid": "61579", "name": "L\u00f6wenhaus/ORF", "lat": "47.275245", "lon": "11.397445"}, {"uid": "61620", "name": "Luigenstra\u00dfe", "lat": "47.25868", "lon": "11.435098"}, {"uid": "65421", "name": "Luimes", "lat": "47.172877", "lon": "11.36733"}, {"uid": "61507", "name": "Luis-Zuegg-Stra\u00dfe", "lat": "47.266572", "lon": "11.345981"}, {"uid": "66429", "name": "Mariahilfpark", "lat": "47.267865", "lon": "11.387095"}, {"uid": "61557", "name": "Maria-Theresien-Stra\u00dfe", "lat": "47.266958", "lon": "11.393176"}, {"uid": "62500", "name": "Marktplatz", "lat": "47.267515", "lon": "11.390996"}, {"uid": "66403", "name": "Martin-Luther-Platz/HAK", "lat": "47.276613", "lon": "11.401528"}, {"uid": "61563", "name": "Maximilianstra\u00dfe", "lat": "47.262391", "lon": "11.39118"}, {"uid": "61550", "name": "MED-EL", "lat": "47.263159", "lon": "11.374695"}, {"uid": "65318", "name": "Medraz Dorf", "lat": "47.142221", "lon": "11.342043"}, {"uid": "61663", "name": "Medraz Stille", "lat": "47.139728", "lon": "11.343335"}, {"uid": "62501", "name": "Meinhardstra\u00dfe", "lat": "47.266405", "lon": "11.399093"}, {"uid": "65371", "name": "Melans", "lat": "47.299522", "lon": "11.50965"}, {"uid": "61534", "name": "Mentlberg", "lat": "47.249675", "lon": "11.371262"}, {"uid": "211", "name": "Messe Bahnhof", "lat": "47.273054", "lon": "11.408024"}, {"uid": "61679", "name": "Messe/Zeughaus", "lat": "47.271197", "lon": "11.404483"}, {"uid": "61343", "name": "Michael-Gaismair-Stra\u00dfe", "lat": "47.260574", "lon": "11.395513"}, {"uid": "65309", "name": "Mieders Danzl", "lat": "47.177941", "lon": "11.393001"}, {"uid": "65311", "name": "Mieders Gemeindeamt", "lat": "47.169693", "lon": "11.381146"}, {"uid": "65313", "name": "Mieders Gewerbepark", "lat": "47.157305", "lon": "11.36551"}, {"uid": "61659", "name": "Mieders Hinterhochegg", "lat": "47.161593", "lon": "11.376116"}, {"uid": "65312", "name": "Mieders Hotel Serles", "lat": "47.167683", "lon": "11.379753"}, {"uid": "65310", "name": "Mieders Oweges", "lat": "47.173408", "lon": "11.387243"}, {"uid": "61660", "name": "Mieders Raika", "lat": "47.17119", "lon": "11.383218"}, {"uid": "65315", "name": "Mieders Serlesbahnen", "lat": "47.164049", "lon": "11.379218"}, {"uid": "65328", "name": "Milders Br\u00fccke", "lat": "47.102702", "lon": "11.288191"}, {"uid": "65330", "name": "Milders Luener", "lat": "47.09546", "lon": "11.279955"}, {"uid": "65329", "name": "Milders Ort", "lat": "47.099039", "lon": "11.283386"}, {"uid": "65327", "name": "Milders Rosengarten", "lat": "47.104951", "lon": "11.291762"}, {"uid": "61604", "name": "Mitterhoferstra\u00dfe", "lat": "47.270902", "lon": "11.41293"}, {"uid": "61523", "name": "Mitterweg", "lat": "47.257327", "lon": "11.368091"}, {"uid": "61540", "name": "Mitterweg Unterf\u00fchrung", "lat": "47.258979", "lon": "11.375415"}, {"uid": "61582", "name": "Mozartstra\u00dfe", "lat": "47.275609", "lon": "11.409194"}, {"uid": "65357", "name": "M\u00fchlau", "lat": "47.28324", "lon": "11.413103"}, {"uid": "64340", "name": "M\u00fchlauer Br\u00fccke", "lat": "47.278646", "lon": "11.403417"}, {"uid": "61643", "name": "M\u00fchlenweg", "lat": "47.28227", "lon": "11.41573"}, {"uid": "65406", "name": "M\u00fchlsee", "lat": "47.24463", "lon": "11.43138"}, {"uid": "61558", "name": "Museumstra\u00dfe", "lat": "47.267305", "lon": "11.395439"}, {"uid": "61682", "name": "Mutters Bahnhof", "lat": "47.228711", "lon": "11.378341"}, {"uid": "65307", "name": "Natterer Auffahrt", "lat": "47.241928", "lon": "11.389804"}, {"uid": "64316", "name": "Natters Bahnhof", "lat": "47.232944", "lon": "11.37853"}, {"uid": "64092", "name": "Natters Ort", "lat": "47.233808", "lon": "11.373294"}, {"uid": "65322", "name": "Neder", "lat": "47.121824", "lon": "11.326445"}, {"uid": "65387", "name": "Neu Arzl", "lat": "47.277003", "lon": "11.441293"}, {"uid": "68126", "name": "Neugasteig", "lat": "47.075163", "lon": "11.261366"}, {"uid": "65389", "name": "Neu-Rum Abzw. Gartenweg", "lat": "47.277936", "lon": "11.451157"}, {"uid": "65388", "name": "Neu-Rum Abzw. Innstra\u00dfe", "lat": "47.277563", "lon": "11.446717"}, {"uid": "61639", "name": "Neu-Rum Flurstra\u00dfe", "lat": "47.274286", "lon": "11.453803"}, {"uid": "68459", "name": "Neu-Rum Glungezerstra\u00dfe", "lat": "47.27599", "lon": "11.451901"}, {"uid": "61640", "name": "Neu-Rum Kaplanstra\u00dfe", "lat": "47.275777", "lon": "11.4565"}, {"uid": "61457", "name": "Neu-Rum Kirche", "lat": "47.27357", "lon": "11.44906"}, {"uid": "61638", "name": "Neu-Rum Siemensstra\u00dfe", "lat": "47.272856", "lon": "11.448475"}, {"uid": "68458", "name": "Neu-Rum Volksschule", "lat": "47.274755", "lon": "11.448777"}, {"uid": "62310", "name": "Neustift i. St. Kindergarten", "lat": "47.108718", "lon": "11.304735"}, {"uid": "62309", "name": "Neustift i.St. Freizeitzentrum", "lat": "47.107291", "lon": "11.304216"}, {"uid": "65325", "name": "Neustift Ortsmitte", "lat": "47.110329", "lon": "11.306269"}, {"uid": "65416", "name": "Nockhofweg Muttereralmbahn", "lat": "47.224269", "lon": "11.371775"}, {"uid": "65353", "name": "Nordkette", "lat": "47.285809", "lon": "11.398949"}, {"uid": "65351", "name": "\u00d6lberg", "lat": "47.279401", "lon": "11.388455"}, {"uid": "62127", "name": "Olympiabr\u00fccke", "lat": "47.257992", "lon": "11.40524"}, {"uid": "64234", "name": "Olympiaworld", "lat": "47.258227", "lon": "11.40785"}, {"uid": "61594", "name": "Pacherstra\u00dfe", "lat": "47.260344", "lon": "11.40966"}, {"uid": "61655", "name": "Patscherkofel", "lat": "47.222141", "lon": "11.425633"}, {"uid": "61608", "name": "Pauluskirche", "lat": "47.273086", "lon": "11.416048"}, {"uid": "61508", "name": "Peerhofsiedlung", "lat": "47.268884", "lon": "11.34615"}, {"uid": "61533", "name": "Peterbr\u00fcnnl", "lat": "47.250597", "lon": "11.369668"}, {"uid": "61532", "name": "Peterbr\u00fcnnlweg", "lat": "47.251409", "lon": "11.368179"}, {"uid": "62492", "name": "Philippine-Welser-Stra\u00dfe", "lat": "47.257912", "lon": "11.422893"}, {"uid": "61536", "name": "Pirmingasse", "lat": "47.261858", "lon": "11.365162"}, {"uid": "61632", "name": "Piuskirche", "lat": "47.274053", "lon": "11.437906"}, {"uid": "65350", "name": "Plattenhof", "lat": "47.276245", "lon": "11.386464"}, {"uid": "66401", "name": "Polizeidirektion", "lat": "47.269875", "lon": "11.399712"}, {"uid": "61597", "name": "Pradler Friedhof", "lat": "47.259214", "lon": "11.421138"}, {"uid": "61603", "name": "Pradler Stra\u00dfe", "lat": "47.269518", "lon": "11.409326"}, {"uid": "61530", "name": "Primelweg", "lat": "47.252698", "lon": "11.360453"}, {"uid": "61609", "name": "Radetzkystra\u00dfe", "lat": "47.275233", "lon": "11.419883"}, {"uid": "61664", "name": "Rain", "lat": "47.11392", "lon": "11.311843"}, {"uid": "65417", "name": "Raitis", "lat": "47.218291", "lon": "11.374811"}, {"uid": "61666", "name": "Ranalt", "lat": "47.034959", "lon": "11.223735"}, {"uid": "61522", "name": "Rehgasse", "lat": "47.25593", "lon": "11.363047"}, {"uid": "61607", "name": "Reithmannstra\u00dfe", "lat": "47.271154", "lon": "11.416848"}, {"uid": "61336", "name": "Rennerschule", "lat": "47.268523", "lon": "11.411768"}, {"uid": "66487", "name": "Riedgasse", "lat": "47.274488", "lon": "11.392702"}, {"uid": "61658", "name": "Romedihof", "lat": "47.236834", "lon": "11.417235"}, {"uid": "62307", "name": "Rossau West", "lat": "47.270683", "lon": "11.428559"}, {"uid": "61610", "name": "Ro\u00dfbachstra\u00dfe", "lat": "47.275057", "lon": "11.423843"}, {"uid": "65398", "name": "Rotadlerstra\u00dfe", "lat": "47.275838", "lon": "11.437076"}, {"uid": "61596", "name": "Rudolf-Greinz-Stra\u00dfe", "lat": "47.261811", "lon": "11.4163"}, {"uid": "1186", "name": "Rum Bahnhof", "lat": "47.277843", "lon": "11.455693"}, {"uid": "61647", "name": "Rum Dorfplatz", "lat": "47.287212", "lon": "11.457208"}, {"uid": "65363", "name": "Rum Murstra\u00dfe", "lat": "47.286788", "lon": "11.452571"}, {"uid": "65364", "name": "Rum Ost", "lat": "47.286722", "lon": "11.461883"}, {"uid": "61646", "name": "Rum Sanatorium", "lat": "47.288731", "lon": "11.448252"}, {"uid": "61542", "name": "Sadrach", "lat": "47.269635", "lon": "11.368676"}, {"uid": "65331", "name": "Schaller", "lat": "47.090228", "lon": "11.277779"}, {"uid": "65326", "name": "Scheibe", "lat": "47.108522", "lon": "11.301096"}, {"uid": "61868", "name": "Schidlachstra\u00dfe", "lat": "47.258216", "lon": "11.397341"}, {"uid": "65349", "name": "Schlerngasse", "lat": "47.274755", "lon": "11.389394"}, {"uid": "64235", "name": "Schloss Ambras", "lat": "47.255668", "lon": "11.429872"}, {"uid": "61983", "name": "Schloss B\u00fcchsenhausen", "lat": "47.276186", "lon": "11.393759"}, {"uid": "61544", "name": "Schlotthofweg", "lat": "47.268466", "lon": "11.373239"}, {"uid": "66427", "name": "Schmelzergasse", "lat": "47.273596", "lon": "11.393926"}, {"uid": "64277", "name": "Sch\u00f6nberg i.St. Gemeindeamt", "lat": "47.186086", "lon": "11.405005"}, {"uid": "65308", "name": "Sch\u00f6nberg i.St. Stubai Center", "lat": "47.182652", "lon": "11.398448"}, {"uid": "65403", "name": "Sch\u00f6nruh", "lat": "47.254316", "lon": "11.430983"}, {"uid": "65359", "name": "Schrottstra\u00dfe/Novapark", "lat": "47.28202", "lon": "11.424218"}, {"uid": "61644", "name": "Schusterbergweg", "lat": "47.281676", "lon": "11.431125"}, {"uid": "61599", "name": "Schutzengelkirche", "lat": "47.265858", "lon": "11.416686"}, {"uid": "61633", "name": "Sch\u00fctzenstra\u00dfe", "lat": "47.273677", "lon": "11.442981"}, {"uid": "61606", "name": "Sebastian-Scheel-Stra\u00dfe", "lat": "47.273859", "lon": "11.41181"}, {"uid": "61528", "name": "Sieglanger", "lat": "47.253835", "lon": "11.354948"}, {"uid": "61531", "name": "Sieglanger Schule", "lat": "47.251848", "lon": "11.36516"}, {"uid": "61630", "name": "Siemens", "lat": "47.277163", "lon": "11.431815"}, {"uid": "61628", "name": "Sillh\u00f6fe", "lat": "47.257087", "lon": "11.404166"}, {"uid": "61589", "name": "Sillpark", "lat": "47.26615", "lon": "11.402511"}, {"uid": "64240", "name": "Sistrans Dorf", "lat": "47.238306", "lon": "11.447112"}, {"uid": "64241", "name": "Sistrans Hackenhof", "lat": "47.24159", "lon": "11.456446"}, {"uid": "64268", "name": "Sonnenburgerhof", "lat": "47.246411", "lon": "11.393608"}, {"uid": "61547", "name": "Sonnenstra\u00dfe", "lat": "47.266368", "lon": "11.376333"}, {"uid": "68351", "name": "Sonnpark", "lat": "47.263337", "lon": "11.408691"}, {"uid": "64209", "name": "SOS-Kinderdorf", "lat": "47.260375", "lon": "11.447944"}, {"uid": "61548", "name": "Speckweg", "lat": "47.266175", "lon": "11.372974"}, {"uid": "61529", "name": "Speikweg", "lat": "47.253299", "lon": "11.357081"}, {"uid": "61613", "name": "St.Pirmin/Volkshaus", "lat": "47.26965", "lon": "11.425039"}, {"uid": "62001", "name": "Stackler", "lat": "47.104196", "lon": "11.300683"}, {"uid": "64006", "name": "Standsch\u00fctzenkaserne", "lat": "47.26523", "lon": "11.324712"}, {"uid": "61519", "name": "Steinbockweg", "lat": "47.259305", "lon": "11.361109"}, {"uid": "1190", "name": "Stift Wilten", "lat": "47.253336", "lon": "11.399877"}, {"uid": "61670", "name": "Stubaier Gletscher", "lat": "47.011197", "lon": "11.155541"}, {"uid": "66421", "name": "Stubaitalbahnhof", "lat": "47.253545", "lon": "11.397554"}, {"uid": "68162", "name": "StuBay", "lat": "47.159483", "lon": "11.353"}, {"uid": "64346", "name": "S\u00fcdring", "lat": "47.260775", "lon": "11.419438"}, {"uid": "65404", "name": "Tantegert", "lat": "47.250919", "lon": "11.4228"}, {"uid": "64397", "name": "Technik", "lat": "47.265188", "lon": "11.348008"}, {"uid": "61675", "name": "Technik West", "lat": "47.265035", "lon": "11.340875"}, {"uid": "61673", "name": "Technikerhaus", "lat": "47.260816", "lon": "11.379241"}, {"uid": "61622", "name": "Technologiezentrum Ost", "lat": "47.264706", "lon": "11.434656"}, {"uid": "68368", "name": "Technologiezentrum West", "lat": "47.265206", "lon": "11.431917"}, {"uid": "65420", "name": "Telfer Wiesen", "lat": "47.18928", "lon": "11.386025"}, {"uid": "65342", "name": "Telfes i. St. Ort", "lat": "47.165116", "lon": "11.359877"}, {"uid": "61566", "name": "Templstra\u00dfe", "lat": "47.25943", "lon": "11.393634"}, {"uid": "64396", "name": "Terminal Marktplatz", "lat": "47.266544", "lon": "11.390113"}, {"uid": "65365", "name": "Thaur Auweg", "lat": "47.291057", "lon": "11.47109"}, {"uid": "65366", "name": "Thaur Mitte", "lat": "47.293533", "lon": "11.47147"}, {"uid": "61649", "name": "Thaur West", "lat": "47.289363", "lon": "11.46529"}, {"uid": "65354", "name": "Theresienkirche", "lat": "47.286373", "lon": "11.398021"}, {"uid": "61526", "name": "Tiergartenstra\u00dfe", "lat": "47.259335", "lon": "11.369139"}, {"uid": "61575", "name": "Tirol Panorama", "lat": "47.250806", "lon": "11.400831"}, {"uid": "61335", "name": "Tivoli Stadion", "lat": "47.257016", "lon": "11.412297"}, {"uid": "61626", "name": "Trientlgasse", "lat": "47.269979", "lon": "11.433833"}, {"uid": "66413", "name": "Triumphpforte/Casino", "lat": "47.262741", "lon": "11.395479"}, {"uid": "61586", "name": "Trogerstra\u00dfe", "lat": "47.276518", "lon": "11.396545"}, {"uid": "61668", "name": "Tschangelair Alm", "lat": "47.022831", "lon": "11.212668"}, {"uid": "61510", "name": "Tschiggfreystra\u00dfe", "lat": "47.267287", "lon": "11.350914"}, {"uid": "61578", "name": "Tschurtschenthalerstra\u00dfe", "lat": "47.274103", "lon": "11.399821"}, {"uid": "65402", "name": "Tummelplatz", "lat": "47.255044", "lon": "11.428008"}, {"uid": "61520", "name": "Uni-Sportst\u00e4tten", "lat": "47.257508", "lon": "11.356267"}, {"uid": "61551", "name": "Unterbergerstra\u00dfe", "lat": "47.263727", "lon": "11.376803"}, {"uid": "64247", "name": "Vill Dorfstra\u00dfe", "lat": "47.236449", "lon": "11.402349"}, {"uid": "61984", "name": "Villa Blanka", "lat": "47.279326", "lon": "11.396968"}, {"uid": "64005", "name": "V\u00f6gelebichl", "lat": "47.264024", "lon": "11.363729"}, {"uid": "65335", "name": "Volderau", "lat": "47.067778", "lon": "11.254217"}, {"uid": "62246", "name": "V\u00f6ls Bahnhof/Landesstra\u00dfe", "lat": "47.255851", "lon": "11.322034"}, {"uid": "64116", "name": "V\u00f6ls Cyta S\u00fcd", "lat": "47.255333", "lon": "11.325475"}, {"uid": "1189", "name": "Westbahnhof", "lat": "47.256325", "lon": "11.391808"}, {"uid": "61570", "name": "Westfriedhof", "lat": "47.257232", "lon": "11.38446"}, {"uid": "61627", "name": "Wiesengasse", "lat": "47.255252", "lon": "11.411683"}, {"uid": "65355", "name": "Wohnheim H\u00f6tting", "lat": "47.272802", "lon": "11.38725"}, {"uid": "61583", "name": "Wohnheim Saggen", "lat": "47.275749", "lon": "11.410641"}, {"uid": "62386", "name": "Ziegelei/Haftanstalt", "lat": "47.25025", "lon": "11.352447"}]